[
  {
    "code": "AEABU",
    "name": "Abu al Bukhoosh",
    "country": "AE",
    "lat": 25.483333,
    "lon": 53.133333
  },
  {
    "code": "AEAJP",
    "name": "Al Jeer Port",
    "country": "AE",
    "lat": 26.033333,
    "lon": 56.05
  },
  {
    "code": "AEAMF",
    "name": "Musaffah",
    "country": "AE",
    "lat": 24.383333,
    "lon": 54.483333
  },
  {
    "code": "AEAMU",
    "name": "Abu Musa",
    "country": "AE",
    "lat": 25.866667,
    "lon": 55.016667
  },
  {
    "code": "AEARP",
    "name": "Ahmed Bin Rashid Port",
    "country": "AE",
    "lat": 25.533333,
    "lon": 55.55
  },
  {
    "code": "AEAUH",
    "name": "Abu Dhabi",
    "country": "AE",
    "lat": 24.466667,
    "lon": 54.366667
  },
  {
    "code": "AEDBP",
    "name": "Dibba",
    "country": "AE",
    "lat": 25.616667,
    "lon": 56.266667
  },
  {
    "code": "AEDXB",
    "name": "Dubai",
    "country": "AE",
    "lat": 25.25,
    "lon": 55.266667
  },
  {
    "code": "AEEND",
    "name": "Esnnad",
    "country": "AE",
    "lat": 24.316667,
    "lon": 54.45
  },
  {
    "code": "AEFJR",
    "name": "Al Fujayrah",
    "country": "AE",
    "lat": 25.116667,
    "lon": 56.333333
  },
  {
    "code": "AEFRP",
    "name": "Free Port",
    "country": "AE",
    "lat": 25.25,
    "lon": 55.25
  },
  {
    "code": "AEHSN",
    "name": "Hassyan",
    "country": "AE",
    "lat": 24.9,
    "lon": 54.9
  },
  {
    "code": "AEHTL",
    "name": "Hulaylah Terminal",
    "country": "AE",
    "lat": 25.983333,
    "lon": 55.933333
  },
  {
    "code": "AEHZP",
    "name": "Hamriya Free Zone Port",
    "country": "AE",
    "lat": 25.3,
    "lon": 55.316667
  },
  {
    "code": "AEJAZ",
    "name": "Al Jazeera Port",
    "country": "AE",
    "lat": 25.716667,
    "lon": 55.8
  },
  {
    "code": "AEKHL",
    "name": "Mina Khalifa/Abu Dhabi",
    "country": "AE",
    "lat": 24.833333,
    "lon": 54.666667
  },
  {
    "code": "AEKLB",
    "name": "Kalba",
    "country": "AE",
    "lat": 25.066667,
    "lon": 56.35
  },
  {
    "code": "AEKLF",
    "name": "Khor al Fakkan",
    "country": "AE",
    "lat": 25.333333,
    "lon": 56.35
  },
  {
    "code": "AEMBS",
    "name": "Mubarras Island",
    "country": "AE",
    "lat": 24.583333,
    "lon": 53.316667
  },
  {
    "code": "AEMKH",
    "name": "Mina Khalid",
    "country": "AE",
    "lat": 25.35,
    "lon": 55.366667
  },
  {
    "code": "AEMRP",
    "name": "Mina Rashid Port",
    "country": "AE",
    "lat": 25.266667,
    "lon": 55.283333
  },
  {
    "code": "AEMSA",
    "name": "Mina Saqr",
    "country": "AE",
    "lat": 25.966667,
    "lon": 56.066667
  },
  {
    "code": "AEMZD",
    "name": "Mina Zayed/Abu Dhabi",
    "country": "AE",
    "lat": 24.516667,
    "lon": 54.366667
  },
  {
    "code": "AEQIW",
    "name": "Umm al Quwain",
    "country": "AE",
    "lat": 25.583333,
    "lon": 55.583333
  },
  {
    "code": "AEQWE",
    "name": "Jebel Ali Free Zone",
    "country": "AE",
    "lat": 25.0,
    "lon": 55.05
  },
  {
    "code": "AERFA",
    "name": "Mirfa",
    "country": "AE",
    "lat": 25.466667,
    "lon": 53.483333
  },
  {
    "code": "AERKP",
    "name": "Rak Khor Port",
    "country": "AE",
    "lat": 25.816667,
    "lon": 55.95
  },
  {
    "code": "AERKT",
    "name": "Ras al Khaimah",
    "country": "AE",
    "lat": 25.783333,
    "lon": 55.95
  },
  {
    "code": "AERMC",
    "name": "Rak Maritime City",
    "country": "AE",
    "lat": 25.95,
    "lon": 56.05
  },
  {
    "code": "AERUW",
    "name": "Ar Ruways",
    "country": "AE",
    "lat": 24.116667,
    "lon": 52.733333
  },
  {
    "code": "AERWP",
    "name": "Ruwais Port",
    "country": "AE",
    "lat": 24.1,
    "lon": 52.716667
  },
  {
    "code": "AESHJ",
    "name": "Sharjah",
    "country": "AE",
    "lat": 25.35,
    "lon": 55.383333
  },
  {
    "code": "AESID",
    "name": "Sadiyat Island",
    "country": "AE",
    "lat": 24.533333,
    "lon": 54.4
  },
  {
    "code": "AEULR",
    "name": "Umm Al Nar",
    "country": "AE",
    "lat": 24.433333,
    "lon": 54.5
  },
  {
    "code": "AEYAS",
    "name": "Yas Island",
    "country": "AE",
    "lat": 24.316667,
    "lon": 52.6
  },
  {
    "code": "AEZUR",
    "name": "Zirku Island",
    "country": "AE",
    "lat": 24.883333,
    "lon": 53.066667
  },
  {
    "code": "AFDHD",
    "name": "Dehdadi",
    "country": "AF",
    "lat": 36.65,
    "lon": 66.983333
  },
  {
    "code": "AFQLT",
    "name": "Qalat",
    "country": "AF",
    "lat": 32.1,
    "lon": 66.883333
  },
  {
    "code": "AFRKH",
    "name": "Torkham",
    "country": "AF",
    "lat": 34.883333,
    "lon": 71.916667
  },
  {
    "code": "AGFAM",
    "name": "Falmouth",
    "country": "AG",
    "lat": 17.016667,
    "lon": -61.783333
  },
  {
    "code": "AGPHM",
    "name": "Parham",
    "country": "AG",
    "lat": 17.083333,
    "lon": -61.75
  },
  {
    "code": "AGSJO",
    "name": "Saint John's",
    "country": "AG",
    "lat": 17.116667,
    "lon": -61.85
  },
  {
    "code": "AIMBB",
    "name": "Meads Bay Beach",
    "country": "AI",
    "lat": 18.166667,
    "lon": -63.133333
  },
  {
    "code": "AIRBY",
    "name": "Road Bay",
    "country": "AI",
    "lat": 18.2,
    "lon": -63.083333
  },
  {
    "code": "AISOM",
    "name": "Sombrero",
    "country": "AI",
    "lat": 18.6,
    "lon": -63.466667
  },
  {
    "code": "ALBUT",
    "name": "Butrint",
    "country": "AL",
    "lat": 39.75,
    "lon": 20.016667
  },
  {
    "code": "ALHMR",
    "name": "Himare",
    "country": "AL",
    "lat": 40.133333,
    "lon": 19.716667
  },
  {
    "code": "ALROM",
    "name": "Romano Port",
    "country": "AL",
    "lat": 41.366667,
    "lon": 19.416667
  },
  {
    "code": "ALSAR",
    "name": "Sarandë",
    "country": "AL",
    "lat": 39.883333,
    "lon": 20.0
  },
  {
    "code": "ALSHG",
    "name": "Shëngjin",
    "country": "AL",
    "lat": 41.8,
    "lon": 19.566667
  },
  {
    "code": "ALVOA",
    "name": "Vlorë",
    "country": "AL",
    "lat": 40.466667,
    "lon": 19.483333
  },
  {
    "code": "AOBAB",
    "name": "Baba",
    "country": "AO",
    "lat": -14.833333,
    "lon": 12.233333
  },
  {
    "code": "AOBDT",
    "name": "Baía dos Tigres",
    "country": "AO",
    "lat": -16.6,
    "lon": 11.733333
  },
  {
    "code": "AOCPO",
    "name": "Capulo",
    "country": "AO",
    "lat": -7.983333,
    "lon": 13.166667
  },
  {
    "code": "AOCUI",
    "name": "Cuio",
    "country": "AO",
    "lat": -12.983333,
    "lon": 12.983333
  },
  {
    "code": "AODAL",
    "name": "Dalia",
    "country": "AO",
    "lat": -7.683333,
    "lon": 11.783333
  },
  {
    "code": "AOETN",
    "name": "Essungo Terminal",
    "country": "AO",
    "lat": -6.333333,
    "lon": 12.166667
  },
  {
    "code": "AOFBY",
    "name": "Farta Bay",
    "country": "AO",
    "lat": -12.616667,
    "lon": 13.2
  },
  {
    "code": "AOFLT",
    "name": "Futila Terminal",
    "country": "AO",
    "lat": -5.45,
    "lon": 12.183333
  },
  {
    "code": "AOGIM",
    "name": "Gimboa",
    "country": "AO",
    "lat": -7.533333,
    "lon": 12.166667
  },
  {
    "code": "AOGIR",
    "name": "Girassol Terminal",
    "country": "AO",
    "lat": -7.633333,
    "lon": 11.683333
  },
  {
    "code": "AOGPO",
    "name": "Greater Plutonio",
    "country": "AO",
    "lat": -7.833333,
    "lon": 12.116667
  },
  {
    "code": "AOLBT",
    "name": "Lombo Terminal",
    "country": "AO",
    "lat": -6.983333,
    "lon": 12.35
  },
  {
    "code": "AONQI",
    "name": "Nóqui",
    "country": "AO",
    "lat": -5.85,
    "lon": 13.433333
  },
  {
    "code": "AONTO",
    "name": "N'Zeto",
    "country": "AO",
    "lat": -7.233333,
    "lon": 12.866667
  },
  {
    "code": "AOPLE",
    "name": "Tombua",
    "country": "AO",
    "lat": -15.816667,
    "lon": 11.85
  },
  {
    "code": "AOPSA",
    "name": "Porto Saco (Portosalazar)",
    "country": "AO",
    "lat": -15.133333,
    "lon": 12.133333
  },
  {
    "code": "AORSN",
    "name": "River Sao Nicolau",
    "country": "AO",
    "lat": -14.25,
    "lon": 12.333333
  },
  {
    "code": "AOSTL",
    "name": "Sazaire Terminal",
    "country": "AO",
    "lat": -6.083333,
    "lon": 12.383333
  },
  {
    "code": "AQABA",
    "name": "Aboa",
    "country": "AQ",
    "lat": -73.05,
    "lon": -13.416667
  },
  {
    "code": "AQAPT",
    "name": "Arturo Prat",
    "country": "AQ",
    "lat": -62.5,
    "lon": -59.683333
  },
  {
    "code": "AQARC",
    "name": "Arctowski",
    "country": "AQ",
    "lat": -62.15,
    "lon": -58.466667
  },
  {
    "code": "AQART",
    "name": "Artigas",
    "country": "AQ",
    "lat": -62.183333,
    "lon": -58.9
  },
  {
    "code": "AQBHN",
    "name": "Bellingshausen",
    "country": "AQ",
    "lat": -62.183333,
    "lon": -58.95
  },
  {
    "code": "AQCAS",
    "name": "Casey Station",
    "country": "AQ",
    "lat": -66.283333,
    "lon": 110.516667
  },
  {
    "code": "AQCFZ",
    "name": "Comandante Ferraz",
    "country": "AQ",
    "lat": -62.083333,
    "lon": -58.383333
  },
  {
    "code": "AQDAV",
    "name": "Davis Station",
    "country": "AQ",
    "lat": -68.566667,
    "lon": 77.966667
  },
  {
    "code": "AQDDU",
    "name": "Dumont d'Urville Station",
    "country": "AQ",
    "lat": -66.65,
    "lon": 140.0
  },
  {
    "code": "AQESC",
    "name": "Escudero",
    "country": "AQ",
    "lat": -62.2,
    "lon": -58.95
  },
  {
    "code": "AQESP",
    "name": "Esperanza",
    "country": "AQ",
    "lat": -63.383333,
    "lon": -56.983333
  },
  {
    "code": "AQGWL",
    "name": "Great Wall",
    "country": "AQ",
    "lat": -62.216667,
    "lon": -58.966667
  },
  {
    "code": "AQHLY",
    "name": "Halley",
    "country": "AQ",
    "lat": -75.566667,
    "lon": -26.533333
  },
  {
    "code": "AQJBS",
    "name": "Jang Bogo Station",
    "country": "AQ",
    "lat": -74.6,
    "lon": 164.2
  },
  {
    "code": "AQJCP",
    "name": "Juan Carlos Primero",
    "country": "AQ",
    "lat": -62.65,
    "lon": -60.383333
  },
  {
    "code": "AQJUB",
    "name": "Jubany",
    "country": "AQ",
    "lat": -62.233333,
    "lon": -58.65
  },
  {
    "code": "AQKHN",
    "name": "Kohnen",
    "country": "AQ",
    "lat": -75.0,
    "lon": 0.066667
  },
  {
    "code": "AQKSG",
    "name": "King Sejong",
    "country": "AQ",
    "lat": -62.216667,
    "lon": -58.783333
  },
  {
    "code": "AQLAW",
    "name": "Law Base",
    "country": "AQ",
    "lat": -69.383333,
    "lon": 76.383333
  },
  {
    "code": "AQMAW",
    "name": "Mawson Station",
    "country": "AQ",
    "lat": -67.6,
    "lon": 62.866667
  },
  {
    "code": "AQMCM",
    "name": "McMurdo",
    "country": "AQ",
    "lat": -77.833333,
    "lon": 166.666667
  },
  {
    "code": "AQMIR",
    "name": "Mirny",
    "country": "AQ",
    "lat": -66.55,
    "lon": 93.0
  },
  {
    "code": "AQMRB",
    "name": "Marambio",
    "country": "AQ",
    "lat": -64.233333,
    "lon": -56.65
  },
  {
    "code": "AQMZU",
    "name": "Mario Zucchelli",
    "country": "AQ",
    "lat": -74.683333,
    "lon": 164.116667
  },
  {
    "code": "AQOHG",
    "name": "General Bernardo O'higgins",
    "country": "AQ",
    "lat": -63.316667,
    "lon": -57.9
  },
  {
    "code": "AQORC",
    "name": "Orcadas",
    "country": "AQ",
    "lat": -60.733333,
    "lon": -44.733333
  },
  {
    "code": "AQPFS",
    "name": "Port Foster",
    "country": "AQ",
    "lat": -63.0,
    "lon": -60.566667
  },
  {
    "code": "AQPLM",
    "name": "Palmer",
    "country": "AQ",
    "lat": -64.766667,
    "lon": -64.05
  },
  {
    "code": "AQPRO",
    "name": "Progress",
    "country": "AQ",
    "lat": -69.4,
    "lon": 76.383333
  },
  {
    "code": "AQROT",
    "name": "Rothera",
    "country": "AQ",
    "lat": -67.566667,
    "lon": -68.116667
  },
  {
    "code": "AQSGN",
    "name": "Signy",
    "country": "AQ",
    "lat": -60.716667,
    "lon": -45.6
  },
  {
    "code": "AQSMT",
    "name": "San Martín",
    "country": "AQ",
    "lat": -68.116667,
    "lon": -67.1
  },
  {
    "code": "AQSYW",
    "name": "Syowa",
    "country": "AQ",
    "lat": -69.0,
    "lon": 39.583333
  },
  {
    "code": "AQVKY",
    "name": "Vernadsky",
    "country": "AQ",
    "lat": -65.233333,
    "lon": -64.25
  },
  {
    "code": "AQWSA",
    "name": "Wasa",
    "country": "AQ",
    "lat": -73.05,
    "lon": -13.416667
  },
  {
    "code": "AQZGN",
    "name": "Zhongshan",
    "country": "AQ",
    "lat": -69.366667,
    "lon": 76.383333
  },
  {
    "code": "ARACF",
    "name": "Arrecifes",
    "country": "AR",
    "lat": -34.083333,
    "lon": -60.116667
  },
  {
    "code": "ARASO",
    "name": "Arroyo Seco",
    "country": "AR",
    "lat": -33.133333,
    "lon": -60.433333
  },
  {
    "code": "ARBHI",
    "name": "Bahía Blanca",
    "country": "AR",
    "lat": -38.716667,
    "lon": -62.283333
  },
  {
    "code": "ARBUE",
    "name": "Buenos Aires",
    "country": "AR",
    "lat": -34.583333,
    "lon": -58.666667
  },
  {
    "code": "ARBUI",
    "name": "Ingeniero Buitrago",
    "country": "AR",
    "lat": -33.35,
    "lon": -60.133333
  },
  {
    "code": "ARBVC",
    "name": "Bella Vista",
    "country": "AR",
    "lat": -28.5,
    "lon": -59.05
  },
  {
    "code": "ARCBS",
    "name": "Chimbas",
    "country": "AR",
    "lat": -31.483333,
    "lon": -68.533333
  },
  {
    "code": "ARCDL",
    "name": "Candelaria",
    "country": "AR",
    "lat": -27.45,
    "lon": -55.75
  },
  {
    "code": "ARCHO",
    "name": "Chilecito",
    "country": "AR",
    "lat": -29.166667,
    "lon": -67.5
  },
  {
    "code": "ARCLC",
    "name": "Caleta Córdoba",
    "country": "AR",
    "lat": -45.733333,
    "lon": -67.066667
  },
  {
    "code": "ARCMP",
    "name": "Campana",
    "country": "AR",
    "lat": -34.15,
    "lon": -58.95
  },
  {
    "code": "ARCOL",
    "name": "Colón",
    "country": "AR",
    "lat": -32.216667,
    "lon": -58.133333
  },
  {
    "code": "ARCOU",
    "name": "Concepción del Uruguay",
    "country": "AR",
    "lat": -32.483333,
    "lon": -58.233333
  },
  {
    "code": "ARCSA",
    "name": "Cabo San Antonio",
    "country": "AR",
    "lat": -36.033333,
    "lon": -56.566667
  },
  {
    "code": "ARDGU",
    "name": "Del Guazu",
    "country": "AR",
    "lat": -33.9,
    "lon": -58.866667
  },
  {
    "code": "ARDME",
    "name": "Diamante",
    "country": "AR",
    "lat": -32.066667,
    "lon": -60.65
  },
  {
    "code": "ARDSU",
    "name": "Dock Sur",
    "country": "AR",
    "lat": -34.65,
    "lon": -58.333333
  },
  {
    "code": "ARGEO",
    "name": "Agrelo",
    "country": "AR",
    "lat": -33.116667,
    "lon": -68.883333
  },
  {
    "code": "ARGHU",
    "name": "Gualeguaychú",
    "country": "AR",
    "lat": -33.016667,
    "lon": -58.516667
  },
  {
    "code": "ARIBY",
    "name": "Ibicuy",
    "country": "AR",
    "lat": -33.733333,
    "lon": -59.166667
  },
  {
    "code": "ARINW",
    "name": "Ingeniero White/Bahia Blanca",
    "country": "AR",
    "lat": -38.783333,
    "lon": -62.266667
  },
  {
    "code": "ARIQO",
    "name": "Coquimbito",
    "country": "AR",
    "lat": -32.966667,
    "lon": -68.75
  },
  {
    "code": "ARLAV",
    "name": "Lavalle",
    "country": "AR",
    "lat": -28.2,
    "lon": -65.133333
  },
  {
    "code": "ARLCU",
    "name": "Lujan de Cuyo",
    "country": "AR",
    "lat": -33.05,
    "lon": -68.866667
  },
  {
    "code": "ARLPG",
    "name": "La Plata",
    "country": "AR",
    "lat": -34.85,
    "lon": -57.883333
  },
  {
    "code": "ARLPM",
    "name": "La Paz",
    "country": "AR",
    "lat": -33.466667,
    "lon": -67.55
  },
  {
    "code": "ARLPS",
    "name": "Las Palmas",
    "country": "AR",
    "lat": -34.016667,
    "lon": -59.116667
  },
  {
    "code": "ARLUJ",
    "name": "Luján",
    "country": "AR",
    "lat": -34.566667,
    "lon": -59.1
  },
  {
    "code": "ARLZG",
    "name": "Luzuriaga",
    "country": "AR",
    "lat": -32.95,
    "lon": -68.816667
  },
  {
    "code": "ARMDQ",
    "name": "Mar del Plata",
    "country": "AR",
    "lat": -38.05,
    "lon": -57.533333
  },
  {
    "code": "ARNOS",
    "name": "Molinos",
    "country": "AR",
    "lat": -25.416667,
    "lon": -66.316667
  },
  {
    "code": "AROVI",
    "name": "Olavarría",
    "country": "AR",
    "lat": -36.883333,
    "lon": -60.333333
  },
  {
    "code": "AROYO",
    "name": "Tres Arroyos",
    "country": "AR",
    "lat": -38.383333,
    "lon": -60.283333
  },
  {
    "code": "ARPAL",
    "name": "Puerto Alumbrera",
    "country": "AR",
    "lat": -32.65,
    "lon": -60.75
  },
  {
    "code": "ARPCO",
    "name": "Punta Colorada",
    "country": "AR",
    "lat": -41.7,
    "lon": -65.0
  },
  {
    "code": "ARPEL",
    "name": "Puerto Eldorado",
    "country": "AR",
    "lat": -26.35,
    "lon": -54.683333
  },
  {
    "code": "ARPLA",
    "name": "Puerto Lavalle",
    "country": "AR",
    "lat": -29.016667,
    "lon": -59.183333
  },
  {
    "code": "ARPME",
    "name": "Punta Medanos",
    "country": "AR",
    "lat": -36.833333,
    "lon": -56.666667
  },
  {
    "code": "ARPMY",
    "name": "Puerto Madryn",
    "country": "AR",
    "lat": -42.75,
    "lon": -65.033333
  },
  {
    "code": "ARPP9",
    "name": "Pablo Podestá",
    "country": "AR",
    "lat": -34.6,
    "lon": -58.516667
  },
  {
    "code": "ARPRA",
    "name": "Paraná",
    "country": "AR",
    "lat": -31.733333,
    "lon": -60.533333
  },
  {
    "code": "ARPRS",
    "name": "Puerto Rosales/Bahia Blanca",
    "country": "AR",
    "lat": -38.933333,
    "lon": -62.066667
  },
  {
    "code": "ARPUD",
    "name": "Puerto Deseado",
    "country": "AR",
    "lat": -47.75,
    "lon": -65.9
  },
  {
    "code": "ARPWA",
    "name": "Puerto Wanda",
    "country": "AR",
    "lat": -25.966667,
    "lon": -54.6
  },
  {
    "code": "ARQBR",
    "name": "Quebracho/San Lorenzo",
    "country": "AR",
    "lat": -32.65,
    "lon": -60.716667
  },
  {
    "code": "ARQQN",
    "name": "Quequén",
    "country": "AR",
    "lat": -38.533333,
    "lon": -58.7
  },
  {
    "code": "ARRFO",
    "name": "Rosario de la Frontera",
    "country": "AR",
    "lat": -25.8,
    "lon": -64.966667
  },
  {
    "code": "ARRGA",
    "name": "Río Grande",
    "country": "AR",
    "lat": -53.783333,
    "lon": -67.7
  },
  {
    "code": "ARRGL",
    "name": "Río Gallegos",
    "country": "AR",
    "lat": -51.633333,
    "lon": -69.216667
  },
  {
    "code": "ARRIC",
    "name": "Rio Cullen",
    "country": "AR",
    "lat": -52.8,
    "lon": -68.183333
  },
  {
    "code": "ARRIV",
    "name": "Rivadavia",
    "country": "AR",
    "lat": -33.183333,
    "lon": -68.466667
  },
  {
    "code": "ARROC",
    "name": "Puerto Ingeniero M. Rocca",
    "country": "AR",
    "lat": -34.85,
    "lon": -57.933333
  },
  {
    "code": "ARROS",
    "name": "Rosario",
    "country": "AR",
    "lat": -32.95,
    "lon": -60.65
  },
  {
    "code": "ARRSF",
    "name": "Resinfor",
    "country": "AR",
    "lat": -32.65,
    "lon": -60.733333
  },
  {
    "code": "ARRWO",
    "name": "Rawson",
    "country": "AR",
    "lat": -43.3,
    "lon": -65.1
  },
  {
    "code": "ARRZA",
    "name": "Santa Cruz",
    "country": "AR",
    "lat": -50.016667,
    "lon": -68.416667
  },
  {
    "code": "ARSAE",
    "name": "San Antonio Este",
    "country": "AR",
    "lat": -40.8,
    "lon": -64.733333
  },
  {
    "code": "ARSAN",
    "name": "Santa Ana",
    "country": "AR",
    "lat": -27.333333,
    "lon": -55.583333
  },
  {
    "code": "ARSCA",
    "name": "San Carlos",
    "country": "AR",
    "lat": -33.766667,
    "lon": -69.033333
  },
  {
    "code": "ARSFN",
    "name": "Santa Fe",
    "country": "AR",
    "lat": -31.6,
    "lon": -60.683333
  },
  {
    "code": "ARSIG",
    "name": "San Ignacio",
    "country": "AR",
    "lat": -27.266667,
    "lon": -55.566667
  },
  {
    "code": "ARSMA",
    "name": "San Martin",
    "country": "AR",
    "lat": -32.716667,
    "lon": -60.733333
  },
  {
    "code": "ARSMR",
    "name": "San Martin",
    "country": "AR",
    "lat": -33.066667,
    "lon": -68.466667
  },
  {
    "code": "ARSNS",
    "name": "San Nicolás de los Arroyos",
    "country": "AR",
    "lat": -33.333333,
    "lon": -60.233333
  },
  {
    "code": "ARSPD",
    "name": "San Pedro",
    "country": "AR",
    "lat": -33.683333,
    "lon": -59.166667
  },
  {
    "code": "ARSSJ",
    "name": "San Salvador de Jujuy",
    "country": "AR",
    "lat": -24.183333,
    "lon": -65.3
  },
  {
    "code": "ARSSN",
    "name": "San Sebastián",
    "country": "AR",
    "lat": -53.3,
    "lon": -68.466667
  },
  {
    "code": "ARSTA",
    "name": "Santa Rosa",
    "country": "AR",
    "lat": -33.25,
    "lon": -68.15
  },
  {
    "code": "ARTIM",
    "name": "Timbúes",
    "country": "AR",
    "lat": -32.633333,
    "lon": -60.783333
  },
  {
    "code": "ARTUC",
    "name": "Tucumán",
    "country": "AR",
    "lat": -26.816667,
    "lon": -65.216667
  },
  {
    "code": "ARTUN",
    "name": "Tunuyan",
    "country": "AR",
    "lat": -33.566667,
    "lon": -69.016667
  },
  {
    "code": "ARULA",
    "name": "San Julian",
    "country": "AR",
    "lat": -49.3,
    "lon": -67.716667
  },
  {
    "code": "ARURD",
    "name": "Urdurrain",
    "country": "AR",
    "lat": -32.683333,
    "lon": -58.883333
  },
  {
    "code": "ARUSH",
    "name": "Ushuaia",
    "country": "AR",
    "lat": -54.8,
    "lon": -68.3
  },
  {
    "code": "ARVCN",
    "name": "Villa Constitución",
    "country": "AR",
    "lat": -33.233333,
    "lon": -60.333333
  },
  {
    "code": "ARVHE",
    "name": "Villa Hernandarias",
    "country": "AR",
    "lat": -31.233333,
    "lon": -59.983333
  },
  {
    "code": "ARVLO",
    "name": "Vicente López",
    "country": "AR",
    "lat": -34.516667,
    "lon": -58.483333
  },
  {
    "code": "ARZAE",
    "name": "Zárate",
    "country": "AR",
    "lat": -34.1,
    "lon": -59.033333
  },
  {
    "code": "ASPPG",
    "name": "Pago Pago",
    "country": "AS",
    "lat": 14.266667,
    "lon": -170.7
  },
  {
    "code": "AT7PZ",
    "name": "Prinzersdorf",
    "country": "AT",
    "lat": 48.2,
    "lon": 15.516667
  },
  {
    "code": "ATATK",
    "name": "Paternion",
    "country": "AT",
    "lat": 46.7,
    "lon": 13.633333
  },
  {
    "code": "ATATN",
    "name": "Asten",
    "country": "AT",
    "lat": 48.216667,
    "lon": 14.4
  },
  {
    "code": "ATAWH",
    "name": "Altenwörth",
    "country": "AT",
    "lat": 48.383333,
    "lon": 15.85
  },
  {
    "code": "ATBFS",
    "name": "Bischofshofen",
    "country": "AT",
    "lat": 47.416667,
    "lon": 13.216667
  },
  {
    "code": "ATBNN",
    "name": "Hobersbrunn",
    "country": "AT",
    "lat": 48.5,
    "lon": 16.566667
  },
  {
    "code": "ATBOE",
    "name": "Böhlerwenk",
    "country": "AT",
    "lat": 47.983333,
    "lon": 14.75
  },
  {
    "code": "ATBRI",
    "name": "Engabrunn",
    "country": "AT",
    "lat": 48.45,
    "lon": 15.75
  },
  {
    "code": "ATBRZ",
    "name": "Bregenz",
    "country": "AT",
    "lat": 47.5,
    "lon": 9.766667
  },
  {
    "code": "ATDFC",
    "name": "Engerwitzdorf",
    "country": "AT",
    "lat": 48.35,
    "lon": 14.45
  },
  {
    "code": "ATDKZ",
    "name": "Deutschkreutz",
    "country": "AT",
    "lat": 47.6,
    "lon": 16.633333
  },
  {
    "code": "ATDOF",
    "name": "Hadersdorf",
    "country": "AT",
    "lat": 48.45,
    "lon": 15.716667
  },
  {
    "code": "ATDRA",
    "name": "Drasenhofen",
    "country": "AT",
    "lat": 48.75,
    "lon": -16.65
  },
  {
    "code": "ATDRO",
    "name": "Dross",
    "country": "AT",
    "lat": 48.45,
    "lon": 15.566667
  },
  {
    "code": "ATDUE",
    "name": "Dürnstein",
    "country": "AT",
    "lat": 48.383333,
    "lon": 15.516667
  },
  {
    "code": "ATDWA",
    "name": "Deutsch Wagram",
    "country": "AT",
    "lat": 48.3,
    "lon": 16.566667
  },
  {
    "code": "ATEBR",
    "name": "Ebreichsdorf",
    "country": "AT",
    "lat": 47.95,
    "lon": 16.4
  },
  {
    "code": "ATEIN",
    "name": "Hoflein",
    "country": "AT",
    "lat": 48.066667,
    "lon": 16.783333
  },
  {
    "code": "ATEPD",
    "name": "Erpersdorf",
    "country": "AT",
    "lat": 48.333333,
    "lon": 15.9
  },
  {
    "code": "ATERL",
    "name": "Erl",
    "country": "AT",
    "lat": 47.666667,
    "lon": 12.166667
  },
  {
    "code": "ATERM",
    "name": "Vordernberg",
    "country": "AT",
    "lat": 47.466667,
    "lon": 15.0
  },
  {
    "code": "ATERO",
    "name": "Engelmannsbrunn",
    "country": "AT",
    "lat": 48.45,
    "lon": 15.883333
  },
  {
    "code": "ATERR",
    "name": "Dobermannsdorf",
    "country": "AT",
    "lat": 48.6,
    "lon": 16.816667
  },
  {
    "code": "ATETZ",
    "name": "Rietz",
    "country": "AT",
    "lat": 47.283333,
    "lon": 11.05
  },
  {
    "code": "ATEWD",
    "name": "Eibiswald",
    "country": "AT",
    "lat": 46.683333,
    "lon": 15.833333
  },
  {
    "code": "ATFBZ",
    "name": "Sankt Stefan ob Stainz",
    "country": "AT",
    "lat": 46.916667,
    "lon": 15.25
  },
  {
    "code": "ATFG7",
    "name": "Achau",
    "country": "AT",
    "lat": 48.666667,
    "lon": -162.5
  },
  {
    "code": "ATFHR",
    "name": "Fehring",
    "country": "AT",
    "lat": 46.933333,
    "lon": 16.0
  },
  {
    "code": "ATFNA",
    "name": "Freudenau",
    "country": "AT",
    "lat": 48.183333,
    "lon": 16.433333
  },
  {
    "code": "ATFPS",
    "name": "Fulpmes",
    "country": "AT",
    "lat": 47.15,
    "lon": 11.35
  },
  {
    "code": "ATFSU",
    "name": "Faistenau",
    "country": "AT",
    "lat": 47.766667,
    "lon": 13.216667
  },
  {
    "code": "ATGA6",
    "name": "Gamlitz",
    "country": "AT",
    "lat": 46.716667,
    "lon": 15.55
  },
  {
    "code": "ATGDN",
    "name": "Gmunden",
    "country": "AT",
    "lat": 47.916667,
    "lon": 13.8
  },
  {
    "code": "ATGFS",
    "name": "Greifenstein",
    "country": "AT",
    "lat": 48.333333,
    "lon": 16.233333
  },
  {
    "code": "ATGGU",
    "name": "Oggau",
    "country": "AT",
    "lat": 47.833333,
    "lon": 16.666667
  },
  {
    "code": "ATGHH",
    "name": "Haugsdorf",
    "country": "AT",
    "lat": 48.7,
    "lon": 16.066667
  },
  {
    "code": "ATGHJ",
    "name": "Krustetten",
    "country": "AT",
    "lat": 48.366667,
    "lon": -154.0
  },
  {
    "code": "ATGRN",
    "name": "Grein",
    "country": "AT",
    "lat": 48.216667,
    "lon": 14.833333
  },
  {
    "code": "ATGSN",
    "name": "Gutenstein",
    "country": "AT",
    "lat": 47.866667,
    "lon": 15.883333
  },
  {
    "code": "ATHKM",
    "name": "Hadersdorf-Kammern",
    "country": "AT",
    "lat": 48.45,
    "lon": 15.716667
  },
  {
    "code": "ATIEG",
    "name": "Limberg",
    "country": "AT",
    "lat": 48.583333,
    "lon": 15.866667
  },
  {
    "code": "ATITN",
    "name": "Hausleiten",
    "country": "AT",
    "lat": 48.383333,
    "lon": 16.1
  },
  {
    "code": "ATJDD",
    "name": "Judendorf",
    "country": "AT",
    "lat": 47.116667,
    "lon": 15.35
  },
  {
    "code": "ATJPS",
    "name": "Japons",
    "country": "AT",
    "lat": 48.783333,
    "lon": 15.566667
  },
  {
    "code": "ATKAM",
    "name": "Kammern im Liesingtal",
    "country": "AT",
    "lat": 47.4,
    "lon": 14.9
  },
  {
    "code": "ATKFD",
    "name": "Knittelfeld",
    "country": "AT",
    "lat": 47.2,
    "lon": 14.816667
  },
  {
    "code": "ATKMB",
    "name": "Krummnussbaum",
    "country": "AT",
    "lat": 48.216667,
    "lon": 15.166667
  },
  {
    "code": "ATKTT",
    "name": "Kematen in Tirol",
    "country": "AT",
    "lat": 47.25,
    "lon": 11.266667
  },
  {
    "code": "ATLKN",
    "name": "Falkenstein",
    "country": "AT",
    "lat": 48.716667,
    "lon": 13.583333
  },
  {
    "code": "ATLTS",
    "name": "Leutschach",
    "country": "AT",
    "lat": 46.666667,
    "lon": 15.466667
  },
  {
    "code": "ATLTX",
    "name": "Hainfeld",
    "country": "AT",
    "lat": 48.033333,
    "lon": 15.766667
  },
  {
    "code": "ATLUA",
    "name": "Lembach",
    "country": "AT",
    "lat": 48.483333,
    "lon": 13.883333
  },
  {
    "code": "ATLZD",
    "name": "Langenzersdorf",
    "country": "AT",
    "lat": 48.3,
    "lon": 16.35
  },
  {
    "code": "ATMAB",
    "name": "Marbach an der Donau",
    "country": "AT",
    "lat": 48.216667,
    "lon": 15.15
  },
  {
    "code": "ATMAN",
    "name": "Manning",
    "country": "AT",
    "lat": 48.083333,
    "lon": 13.666667
  },
  {
    "code": "ATMBS",
    "name": "Morbisch am See",
    "country": "AT",
    "lat": 47.75,
    "lon": 16.666667
  },
  {
    "code": "ATMKA",
    "name": "Markt Allhau",
    "country": "AT",
    "lat": 47.233333,
    "lon": 16.083333
  },
  {
    "code": "ATMKC",
    "name": "Mitterkirchen",
    "country": "AT",
    "lat": 48.183333,
    "lon": 14.7
  },
  {
    "code": "ATNAD",
    "name": "Neuhofen an der Ybbs",
    "country": "AT",
    "lat": 48.05,
    "lon": 14.85
  },
  {
    "code": "ATND2",
    "name": "Nickelsdorf",
    "country": "AT",
    "lat": 47.933333,
    "lon": 17.066667
  },
  {
    "code": "ATNFN",
    "name": "Neufelden",
    "country": "AT",
    "lat": 48.483333,
    "lon": 13.983333
  },
  {
    "code": "ATNGG",
    "name": "Neudegg",
    "country": "AT",
    "lat": 48.483333,
    "lon": 15.883333
  },
  {
    "code": "ATNNN",
    "name": "Donnerskirchen",
    "country": "AT",
    "lat": 47.9,
    "lon": 16.633333
  },
  {
    "code": "ATNT9",
    "name": "Muthmannsdorf",
    "country": "AT",
    "lat": 47.833333,
    "lon": 16.1
  },
  {
    "code": "ATNUZ",
    "name": "Nüziders",
    "country": "AT",
    "lat": 47.183333,
    "lon": 9.8
  },
  {
    "code": "ATOSH",
    "name": "Ottensheim",
    "country": "AT",
    "lat": 48.333333,
    "lon": 14.183333
  },
  {
    "code": "ATPAS",
    "name": "Podersdorf am See",
    "country": "AT",
    "lat": 47.85,
    "lon": 16.833333
  },
  {
    "code": "ATPBU",
    "name": "Persenbeug",
    "country": "AT",
    "lat": 48.183333,
    "lon": 15.066667
  },
  {
    "code": "ATPET",
    "name": "Petzenkirchen",
    "country": "AT",
    "lat": 48.133333,
    "lon": 15.15
  },
  {
    "code": "ATRAD",
    "name": "Radstadt",
    "country": "AT",
    "lat": 47.383333,
    "lon": 13.45
  },
  {
    "code": "ATREG",
    "name": "Regau",
    "country": "AT",
    "lat": 48.083333,
    "lon": 14.133333
  },
  {
    "code": "ATRHN",
    "name": "Ranshofen",
    "country": "AT",
    "lat": 48.233333,
    "lon": 13.0
  },
  {
    "code": "ATRHR",
    "name": "Rohrau",
    "country": "AT",
    "lat": 48.066667,
    "lon": 16.85
  },
  {
    "code": "ATRRF",
    "name": "Ruhrsdorf",
    "country": "AT",
    "lat": 48.4,
    "lon": 15.5
  },
  {
    "code": "ATSAG",
    "name": "Schutzen am Gebirge",
    "country": "AT",
    "lat": 47.85,
    "lon": 16.616667
  },
  {
    "code": "ATSAK",
    "name": "Sankt Aegidi",
    "country": "AT",
    "lat": 48.483333,
    "lon": 13.75
  },
  {
    "code": "ATSFT",
    "name": "Senftenberg",
    "country": "AT",
    "lat": 48.433333,
    "lon": 15.55
  },
  {
    "code": "ATSGS",
    "name": "Sankt Georgen bei Salzburg",
    "country": "AT",
    "lat": 47.983333,
    "lon": 12.883333
  },
  {
    "code": "ATSK3",
    "name": "Sankt Margrethen",
    "country": "AT",
    "lat": 46.633333,
    "lon": 14.383333
  },
  {
    "code": "ATSMK",
    "name": "Schönau im Mühlkreis",
    "country": "AT",
    "lat": 48.383333,
    "lon": 14.733333
  },
  {
    "code": "ATSMR",
    "name": "Sankt Margarethen an der Raab",
    "country": "AT",
    "lat": 47.05,
    "lon": 15.75
  },
  {
    "code": "ATSPG",
    "name": "Spannberg",
    "country": "AT",
    "lat": 48.45,
    "lon": 16.733333
  },
  {
    "code": "ATSPZ",
    "name": "Spitz",
    "country": "AT",
    "lat": 48.366667,
    "lon": 15.416667
  },
  {
    "code": "ATSSS",
    "name": "Steinberg",
    "country": "AT",
    "lat": 47.483333,
    "lon": 16.483333
  },
  {
    "code": "ATST6",
    "name": "Straden",
    "country": "AT",
    "lat": 46.8,
    "lon": 15.866667
  },
  {
    "code": "ATSTD",
    "name": "Steeg",
    "country": "AT",
    "lat": 47.6,
    "lon": 13.633333
  },
  {
    "code": "ATSUH",
    "name": "Sankt Ulrich",
    "country": "AT",
    "lat": 48.6,
    "lon": 16.766667
  },
  {
    "code": "ATSUS",
    "name": "Steinhaus",
    "country": "AT",
    "lat": 48.116667,
    "lon": 14.016667
  },
  {
    "code": "ATSVM",
    "name": "Sankt Veit im Mühlkreis",
    "country": "AT",
    "lat": 48.466667,
    "lon": 14.15
  },
  {
    "code": "ATSWH",
    "name": "Gross-Schweinbarth",
    "country": "AT",
    "lat": 48.4,
    "lon": 16.616667
  },
  {
    "code": "ATSXA",
    "name": "Bernhardsthal",
    "country": "AT",
    "lat": 48.683333,
    "lon": 16.866667
  },
  {
    "code": "ATTAM",
    "name": "Tamsweg",
    "country": "AT",
    "lat": 47.133333,
    "lon": 13.8
  },
  {
    "code": "ATTEN",
    "name": "Hausmannstatten",
    "country": "AT",
    "lat": 46.983333,
    "lon": 15.5
  },
  {
    "code": "ATTFS",
    "name": "Terfens",
    "country": "AT",
    "lat": 47.316667,
    "lon": 11.65
  },
  {
    "code": "ATTHS",
    "name": "Theiss",
    "country": "AT",
    "lat": 48.383333,
    "lon": 15.683333
  },
  {
    "code": "ATTKP",
    "name": "Taufkirchen an der Pram",
    "country": "AT",
    "lat": 48.416667,
    "lon": 13.533333
  },
  {
    "code": "ATTMR",
    "name": "Traismauer",
    "country": "AT",
    "lat": 48.333333,
    "lon": 15.733333
  },
  {
    "code": "ATTTL",
    "name": "Schrattenthal",
    "country": "AT",
    "lat": 48.7,
    "lon": 15.9
  },
  {
    "code": "ATVEL",
    "name": "Velden",
    "country": "AT",
    "lat": 46.616667,
    "lon": 14.05
  },
  {
    "code": "ATWDF",
    "name": "Weitendorf",
    "country": "AT",
    "lat": 46.883333,
    "lon": 15.466667
  },
  {
    "code": "ATWEU",
    "name": "Weinburg",
    "country": "AT",
    "lat": 48.1,
    "lon": 15.516667
  },
  {
    "code": "ATWSE",
    "name": "Wallsee",
    "country": "AT",
    "lat": 48.166667,
    "lon": 14.716667
  },
  {
    "code": "ATWUL",
    "name": "Wulkaprodersdorf",
    "country": "AT",
    "lat": 47.8,
    "lon": 16.5
  },
  {
    "code": "ATXAE",
    "name": "Oehling",
    "country": "AT",
    "lat": 48.1,
    "lon": 14.8
  },
  {
    "code": "ATZIN",
    "name": "Inzersdorf an der Traisen",
    "country": "AT",
    "lat": 48.316667,
    "lon": 15.666667
  },
  {
    "code": "ATZLF",
    "name": "Jetzelsdorf",
    "country": "AT",
    "lat": 48.7,
    "lon": 16.05
  },
  {
    "code": "ATZNG",
    "name": "Zobing",
    "country": "AT",
    "lat": 48.483333,
    "lon": 15.683333
  },
  {
    "code": "ATZRF",
    "name": "Ketzelsdorf",
    "country": "AT",
    "lat": 48.65,
    "lon": 16.65
  },
  {
    "code": "AU5CI",
    "name": "Selby",
    "country": "AU",
    "lat": -37.916667,
    "lon": 145.383333
  },
  {
    "code": "AUABP",
    "name": "Abbot Point",
    "country": "AU",
    "lat": -19.9,
    "lon": 148.083333
  },
  {
    "code": "AUADL",
    "name": "Adelaide",
    "country": "AU",
    "lat": -34.916667,
    "lon": 138.583333
  },
  {
    "code": "AUAGS",
    "name": "Augusta",
    "country": "AU",
    "lat": -34.316667,
    "lon": 115.166667
  },
  {
    "code": "AUALD",
    "name": "Aldgate",
    "country": "AU",
    "lat": -35.016667,
    "lon": 138.733333
  },
  {
    "code": "AUALI",
    "name": "Australind",
    "country": "AU",
    "lat": -33.283333,
    "lon": 115.716667
  },
  {
    "code": "AUALP",
    "name": "Abell Point",
    "country": "AU",
    "lat": -20.266667,
    "lon": 148.716667
  },
  {
    "code": "AUAMR",
    "name": "Amrun",
    "country": "AU",
    "lat": -12.916667,
    "lon": 141.616667
  },
  {
    "code": "AUANN",
    "name": "Annandale",
    "country": "AU",
    "lat": -33.883333,
    "lon": 151.166667
  },
  {
    "code": "AUAPP",
    "name": "Applecross",
    "country": "AU",
    "lat": -32.016667,
    "lon": 115.833333
  },
  {
    "code": "AUASB",
    "name": "Ashburton",
    "country": "AU",
    "lat": -21.683333,
    "lon": 115.0
  },
  {
    "code": "AUASH",
    "name": "Ashton",
    "country": "AU",
    "lat": -34.933333,
    "lon": 138.733333
  },
  {
    "code": "AUATT",
    "name": "Attadale",
    "country": "AU",
    "lat": -32.016667,
    "lon": 115.783333
  },
  {
    "code": "AUBAA",
    "name": "Balhannah",
    "country": "AU",
    "lat": -34.983333,
    "lon": 138.833333
  },
  {
    "code": "AUBAE",
    "name": "Baerami",
    "country": "AU",
    "lat": -32.4,
    "lon": 150.483333
  },
  {
    "code": "AUBAL",
    "name": "Balnarring",
    "country": "AU",
    "lat": -38.366667,
    "lon": 145.133333
  },
  {
    "code": "AUBAR",
    "name": "Barry Beach",
    "country": "AU",
    "lat": -38.7,
    "lon": 146.383333
  },
  {
    "code": "AUBBG",
    "name": "Bing Bong",
    "country": "AU",
    "lat": -15.6,
    "lon": 136.35
  },
  {
    "code": "AUBBL",
    "name": "Beelbangera",
    "country": "AU",
    "lat": -34.266667,
    "lon": 146.1
  },
  {
    "code": "AUBBY",
    "name": "Bremer Bay",
    "country": "AU",
    "lat": -34.383333,
    "lon": 119.366667
  },
  {
    "code": "AUBDY",
    "name": "Bomaderry",
    "country": "AU",
    "lat": -34.85,
    "lon": 150.616667
  },
  {
    "code": "AUBE9",
    "name": "Belrose",
    "country": "AU",
    "lat": -33.733333,
    "lon": 151.216667
  },
  {
    "code": "AUBFD",
    "name": "Beresfield",
    "country": "AU",
    "lat": -32.8,
    "lon": 151.65
  },
  {
    "code": "AUBIC",
    "name": "Bicheno",
    "country": "AU",
    "lat": -41.866667,
    "lon": 148.283333
  },
  {
    "code": "AUBKE",
    "name": "Berkeley Vale",
    "country": "AU",
    "lat": -33.35,
    "lon": 151.433333
  },
  {
    "code": "AUBLP",
    "name": "Black Point",
    "country": "AU",
    "lat": -11.15,
    "lon": 132.15
  },
  {
    "code": "AUBNE",
    "name": "Brisbane",
    "country": "AU",
    "lat": -27.466667,
    "lon": 153.016667
  },
  {
    "code": "AUBNN",
    "name": "Bannockburn",
    "country": "AU",
    "lat": -38.05,
    "lon": 144.166667
  },
  {
    "code": "AUBNY",
    "name": "Blayney",
    "country": "AU",
    "lat": -33.533333,
    "lon": 149.25
  },
  {
    "code": "AUBOB",
    "name": "Bobin",
    "country": "AU",
    "lat": -31.716667,
    "lon": 152.283333
  },
  {
    "code": "AUBOD",
    "name": "Boondall",
    "country": "AU",
    "lat": -27.333333,
    "lon": 153.05
  },
  {
    "code": "AUBOL",
    "name": "Bridgewater-on-Loddon",
    "country": "AU",
    "lat": -36.6,
    "lon": 143.95
  },
  {
    "code": "AUBOO",
    "name": "Booby Island",
    "country": "AU",
    "lat": -10.6,
    "lon": 141.916667
  },
  {
    "code": "AUBOT",
    "name": "Boort",
    "country": "AU",
    "lat": -36.116667,
    "lon": 143.716667
  },
  {
    "code": "AUBOU",
    "name": "Boundary Bend",
    "country": "AU",
    "lat": -34.7,
    "lon": 143.15
  },
  {
    "code": "AUBOV",
    "name": "Blacktip Terminal",
    "country": "AU",
    "lat": -14.4,
    "lon": 129.35
  },
  {
    "code": "AUBOY",
    "name": "Boyer",
    "country": "AU",
    "lat": -42.833333,
    "lon": 147.3
  },
  {
    "code": "AUBPO",
    "name": "Bridport",
    "country": "AU",
    "lat": -41.0,
    "lon": 147.4
  },
  {
    "code": "AUBRR",
    "name": "Berrys Creek",
    "country": "AU",
    "lat": -38.416667,
    "lon": 146.066667
  },
  {
    "code": "AUBSA",
    "name": "Brighton-Le-Sands",
    "country": "AU",
    "lat": -33.95,
    "lon": 151.15
  },
  {
    "code": "AUBUC",
    "name": "Burketown",
    "country": "AU",
    "lat": -17.733333,
    "lon": 139.533333
  },
  {
    "code": "AUBUL",
    "name": "Bulli",
    "country": "AU",
    "lat": -34.3,
    "lon": 150.916667
  },
  {
    "code": "AUBVD",
    "name": "Belvidere",
    "country": "AU",
    "lat": -35.3,
    "lon": 138.933333
  },
  {
    "code": "AUBWI",
    "name": "Bulwer",
    "country": "AU",
    "lat": -27.066667,
    "lon": 153.366667
  },
  {
    "code": "AUBYY",
    "name": "Bushy Park",
    "country": "AU",
    "lat": -37.866667,
    "lon": 147.033333
  },
  {
    "code": "AUC8R",
    "name": "Cromer",
    "country": "AU",
    "lat": -34.766667,
    "lon": 139.0
  },
  {
    "code": "AUCAP",
    "name": "Capalaba",
    "country": "AU",
    "lat": -27.516667,
    "lon": 153.183333
  },
  {
    "code": "AUCAR",
    "name": "Carina Heights",
    "country": "AU",
    "lat": -27.5,
    "lon": 153.083333
  },
  {
    "code": "AUCBA",
    "name": "Corio Bay",
    "country": "AU",
    "lat": -38.116667,
    "lon": 144.433333
  },
  {
    "code": "AUCBO",
    "name": "Carboor",
    "country": "AU",
    "lat": -36.633333,
    "lon": 146.55
  },
  {
    "code": "AUCDN",
    "name": "Clarendon",
    "country": "AU",
    "lat": -35.116667,
    "lon": 138.633333
  },
  {
    "code": "AUCHE",
    "name": "Chermside",
    "country": "AU",
    "lat": -27.383333,
    "lon": 153.166667
  },
  {
    "code": "AUCHV",
    "name": "Challis Venture (oil terminal)",
    "country": "AU",
    "lat": -12.116667,
    "lon": 125.016667
  },
  {
    "code": "AUCLF",
    "name": "Carlingford",
    "country": "AU",
    "lat": -33.783333,
    "lon": 151.05
  },
  {
    "code": "AUCLM",
    "name": "Claremont",
    "country": "AU",
    "lat": -31.983333,
    "lon": 115.783333
  },
  {
    "code": "AUCMB",
    "name": "Cambridge",
    "country": "AU",
    "lat": -42.833333,
    "lon": 147.45
  },
  {
    "code": "AUCMO",
    "name": "Como",
    "country": "AU",
    "lat": -34.0,
    "lon": 151.066667
  },
  {
    "code": "AUCMP",
    "name": "Camperdown",
    "country": "AU",
    "lat": -33.883333,
    "lon": 151.166667
  },
  {
    "code": "AUCN6",
    "name": "Chinderah",
    "country": "AU",
    "lat": -28.233333,
    "lon": 153.55
  },
  {
    "code": "AUCNW",
    "name": "Coonawarra",
    "country": "AU",
    "lat": -37.3,
    "lon": 140.816667
  },
  {
    "code": "AUCOO",
    "name": "Coomera",
    "country": "AU",
    "lat": -27.883333,
    "lon": 153.3
  },
  {
    "code": "AUCOP",
    "name": "Cossack Pioneer (oil terminal)",
    "country": "AU",
    "lat": -19.583333,
    "lon": 116.45
  },
  {
    "code": "AUCOU",
    "name": "Coolum",
    "country": "AU",
    "lat": -26.55,
    "lon": 153.083333
  },
  {
    "code": "AUCOW",
    "name": "Cowaramup",
    "country": "AU",
    "lat": -33.866667,
    "lon": 115.083333
  },
  {
    "code": "AUCPR",
    "name": "Coorparoo",
    "country": "AU",
    "lat": -27.5,
    "lon": 153.05
  },
  {
    "code": "AUCRF",
    "name": "Crafers",
    "country": "AU",
    "lat": -35.0,
    "lon": 138.7
  },
  {
    "code": "AUCRL",
    "name": "Coral Bay",
    "country": "AU",
    "lat": -23.133333,
    "lon": 113.766667
  },
  {
    "code": "AUCRS",
    "name": "Coral Sea",
    "country": "AU",
    "lat": -19.083333,
    "lon": 150.9
  },
  {
    "code": "AUCRU",
    "name": "Cronulla",
    "country": "AU",
    "lat": -34.05,
    "lon": 151.15
  },
  {
    "code": "AUCRV",
    "name": "Coromandel Valley",
    "country": "AU",
    "lat": -35.05,
    "lon": 138.616667
  },
  {
    "code": "AUCST",
    "name": "Coldstream",
    "country": "AU",
    "lat": -37.716667,
    "lon": 145.366667
  },
  {
    "code": "AUCTE",
    "name": "Cottesloe",
    "country": "AU",
    "lat": -32.0,
    "lon": 115.766667
  },
  {
    "code": "AUCTH",
    "name": "Thevenard Island",
    "country": "AU",
    "lat": -21.45,
    "lon": 114.983333
  },
  {
    "code": "AUCTI",
    "name": "Cockatoo Island",
    "country": "AU",
    "lat": -16.1,
    "lon": 123.616667
  },
  {
    "code": "AUCTT",
    "name": "Cottles Bridge",
    "country": "AU",
    "lat": -37.633333,
    "lon": 145.216667
  },
  {
    "code": "AUCUN",
    "name": "Caufield North",
    "country": "AU",
    "lat": -37.866667,
    "lon": 14.85
  },
  {
    "code": "AUCVL",
    "name": "Clovelly",
    "country": "AU",
    "lat": -33.9,
    "lon": 151.25
  },
  {
    "code": "AUCVN",
    "name": "Cleveland",
    "country": "AU",
    "lat": -27.533333,
    "lon": 153.266667
  },
  {
    "code": "AUCVS",
    "name": "Caversham",
    "country": "AU",
    "lat": -31.883333,
    "lon": 115.966667
  },
  {
    "code": "AUDA5",
    "name": "Twowells",
    "country": "AU",
    "lat": -34.6,
    "lon": 138.5
  },
  {
    "code": "AUDAL",
    "name": "Dalton",
    "country": "AU",
    "lat": -34.716667,
    "lon": 149.183333
  },
  {
    "code": "AUDAR",
    "name": "Dardanup",
    "country": "AU",
    "lat": -33.4,
    "lon": 115.75
  },
  {
    "code": "AUDGA",
    "name": "Tea Gardens",
    "country": "AU",
    "lat": -32.666667,
    "lon": 152.15
  },
  {
    "code": "AUDHI",
    "name": "Dhipirrinjura",
    "country": "AU",
    "lat": -12.25,
    "lon": 135.083333
  },
  {
    "code": "AUDIA",
    "name": "Diamond Creek",
    "country": "AU",
    "lat": -37.666667,
    "lon": 145.15
  },
  {
    "code": "AUDIL",
    "name": "Cowandilla",
    "country": "AU",
    "lat": -34.916667,
    "lon": 138.55
  },
  {
    "code": "AUDIT",
    "name": "Dalrymple Islet",
    "country": "AU",
    "lat": -9.6,
    "lon": 143.3
  },
  {
    "code": "AUDLP",
    "name": "Arndell Park",
    "country": "AU",
    "lat": -33.783333,
    "lon": 150.866667
  },
  {
    "code": "AUDON",
    "name": "Cape Don",
    "country": "AU",
    "lat": -11.316667,
    "lon": 131.75
  },
  {
    "code": "AUDRW",
    "name": "Darwin",
    "country": "AU",
    "lat": -12.45,
    "lon": 130.833333
  },
  {
    "code": "AUDRY",
    "name": "Drysdale",
    "country": "AU",
    "lat": -38.166667,
    "lon": 144.566667
  },
  {
    "code": "AUDSW",
    "name": "Padstow",
    "country": "AU",
    "lat": -33.95,
    "lon": 151.033333
  },
  {
    "code": "AUEDE",
    "name": "Eden Valley",
    "country": "AU",
    "lat": -34.65,
    "lon": 139.1
  },
  {
    "code": "AUELB",
    "name": "Elizabeth Bay",
    "country": "AU",
    "lat": -11.9,
    "lon": 136.55
  },
  {
    "code": "AUELT",
    "name": "Eltham",
    "country": "AU",
    "lat": -37.733333,
    "lon": 145.15
  },
  {
    "code": "AUEVL",
    "name": "Evans Landing",
    "country": "AU",
    "lat": -12.666667,
    "lon": 141.85
  },
  {
    "code": "AUFIN",
    "name": "Findon",
    "country": "AU",
    "lat": -34.9,
    "lon": 138.533333
  },
  {
    "code": "AUFLD",
    "name": "Frankland",
    "country": "AU",
    "lat": -34.366667,
    "lon": 114.066667
  },
  {
    "code": "AUFLN",
    "name": "Flynn",
    "country": "AU",
    "lat": -38.166667,
    "lon": 146.683333
  },
  {
    "code": "AUFRY",
    "name": "Port Fairy",
    "country": "AU",
    "lat": -38.366667,
    "lon": 142.233333
  },
  {
    "code": "AUFWT",
    "name": "Freshwater",
    "country": "AU",
    "lat": -33.766667,
    "lon": 151.283333
  },
  {
    "code": "AUGBT",
    "name": "Garbutt",
    "country": "AU",
    "lat": -19.266667,
    "lon": 146.766667
  },
  {
    "code": "AUGEM",
    "name": "Gembrook",
    "country": "AU",
    "lat": -37.95,
    "lon": 145.55
  },
  {
    "code": "AUGOA",
    "name": "Goolwa",
    "country": "AU",
    "lat": -35.5,
    "lon": 138.783333
  },
  {
    "code": "AUGOH",
    "name": "Gove Harbour",
    "country": "AU",
    "lat": -12.216667,
    "lon": 136.666667
  },
  {
    "code": "AUGOR",
    "name": "Gordon",
    "country": "AU",
    "lat": -37.583333,
    "lon": 144.1
  },
  {
    "code": "AUGRB",
    "name": "Gravelly Beach",
    "country": "AU",
    "lat": -41.3,
    "lon": 146.966667
  },
  {
    "code": "AUGRK",
    "name": "Greenock",
    "country": "AU",
    "lat": -34.466667,
    "lon": 138.916667
  },
  {
    "code": "AUGRU",
    "name": "Gruyere",
    "country": "AU",
    "lat": -37.733333,
    "lon": 145.45
  },
  {
    "code": "AUGRV",
    "name": "Griffin Venture (oil terminal)",
    "country": "AU",
    "lat": -21.216667,
    "lon": 114.633333
  },
  {
    "code": "AUGTW",
    "name": "Great Western",
    "country": "AU",
    "lat": -37.15,
    "lon": 142.85
  },
  {
    "code": "AUGUM",
    "name": "Gumeracha",
    "country": "AU",
    "lat": -34.833333,
    "lon": 138.883333
  },
  {
    "code": "AUGUR",
    "name": "The Gurdies",
    "country": "AU",
    "lat": -38.366667,
    "lon": 145.55
  },
  {
    "code": "AUHAH",
    "name": "Hahndorf",
    "country": "AU",
    "lat": -35.033333,
    "lon": 138.8
  },
  {
    "code": "AUHAM",
    "name": "Hampton",
    "country": "AU",
    "lat": -38.333333,
    "lon": 145.25
  },
  {
    "code": "AUHAS",
    "name": "Hastings",
    "country": "AU",
    "lat": -38.3,
    "lon": 145.25
  },
  {
    "code": "AUHBA",
    "name": "Hobart",
    "country": "AU",
    "lat": -42.866667,
    "lon": 147.3
  },
  {
    "code": "AUHBE",
    "name": "Heatherbrae",
    "country": "AU",
    "lat": -32.783333,
    "lon": 151.733333
  },
  {
    "code": "AUHDD",
    "name": "Hoddles Creek",
    "country": "AU",
    "lat": -37.833333,
    "lon": 145.583333
  },
  {
    "code": "AUHFR",
    "name": "Henderson",
    "country": "AU",
    "lat": -32.166667,
    "lon": 115.766667
  },
  {
    "code": "AUHNK",
    "name": "Hinchinbrook Island",
    "country": "AU",
    "lat": -18.383333,
    "lon": 146.283333
  },
  {
    "code": "AUHPP",
    "name": "Happy Valley",
    "country": "AU",
    "lat": -35.083333,
    "lon": 138.533333
  },
  {
    "code": "AUHTH",
    "name": "Heathcote",
    "country": "AU",
    "lat": -36.916667,
    "lon": 144.716667
  },
  {
    "code": "AUHTT",
    "name": "Halletts Cove",
    "country": "AU",
    "lat": -35.066667,
    "lon": 138.5
  },
  {
    "code": "AUHWD",
    "name": "Hanwood",
    "country": "AU",
    "lat": -34.333333,
    "lon": 146.033333
  },
  {
    "code": "AUIGF",
    "name": "Ingle Farm",
    "country": "AU",
    "lat": -34.833333,
    "lon": 138.633333
  },
  {
    "code": "AUIRY",
    "name": "Irymple",
    "country": "AU",
    "lat": -34.25,
    "lon": 142.166667
  },
  {
    "code": "AUJML",
    "name": "Laurieton",
    "country": "AU",
    "lat": -31.65,
    "lon": 152.8
  },
  {
    "code": "AUKAN",
    "name": "Kangarilla",
    "country": "AU",
    "lat": -35.15,
    "lon": 138.65
  },
  {
    "code": "AUKAY",
    "name": "Kayena",
    "country": "AU",
    "lat": -41.183333,
    "lon": 146.883333
  },
  {
    "code": "AUKEI",
    "name": "Keith",
    "country": "AU",
    "lat": -36.1,
    "lon": 140.35
  },
  {
    "code": "AUKJH",
    "name": "Welland",
    "country": "AU",
    "lat": -34.9,
    "lon": 138.533333
  },
  {
    "code": "AUKLL",
    "name": "Maryknoll",
    "country": "AU",
    "lat": -38.916667,
    "lon": 145.6
  },
  {
    "code": "AUKNG",
    "name": "Kensington Gardens",
    "country": "AU",
    "lat": -35.533333,
    "lon": 139.1
  },
  {
    "code": "AUKRB",
    "name": "Karumba",
    "country": "AU",
    "lat": -17.483333,
    "lon": 140.833333
  },
  {
    "code": "AULAN",
    "name": "Langarra",
    "country": "AU",
    "lat": -12.083333,
    "lon": 135.35
  },
  {
    "code": "AULEN",
    "name": "Lakes Entrance",
    "country": "AU",
    "lat": -37.883333,
    "lon": 147.983333
  },
  {
    "code": "AULMQ",
    "name": "Lake Macquarie",
    "country": "AU",
    "lat": -33.066667,
    "lon": 151.6
  },
  {
    "code": "AULOW",
    "name": "Lisarow",
    "country": "AU",
    "lat": -33.383333,
    "lon": 151.366667
  },
  {
    "code": "AULUB",
    "name": "Lucky Bay",
    "country": "AU",
    "lat": -33.683333,
    "lon": 136.916667
  },
  {
    "code": "AULYD",
    "name": "Lilydale",
    "country": "AU",
    "lat": -37.75,
    "lon": 145.366667
  },
  {
    "code": "AUMAR",
    "name": "Marrickville",
    "country": "AU",
    "lat": -33.916667,
    "lon": 151.166667
  },
  {
    "code": "AUMBY",
    "name": "Maribyrnong",
    "country": "AU",
    "lat": -37.783333,
    "lon": 144.883333
  },
  {
    "code": "AUMDC",
    "name": "Mordialloc",
    "country": "AU",
    "lat": -38.016667,
    "lon": 145.083333
  },
  {
    "code": "AUMEL",
    "name": "Melbourne",
    "country": "AU",
    "lat": -37.816667,
    "lon": 144.966667
  },
  {
    "code": "AUMHW",
    "name": "Mount Hawthorn",
    "country": "AU",
    "lat": -31.916667,
    "lon": 115.833333
  },
  {
    "code": "AUMID",
    "name": "Midland",
    "country": "AU",
    "lat": 31.883333,
    "lon": -115.983333
  },
  {
    "code": "AUMKY",
    "name": "Mackay",
    "country": "AU",
    "lat": -21.15,
    "lon": 149.2
  },
  {
    "code": "AUMLI",
    "name": "Melville Island",
    "country": "AU",
    "lat": -11.55,
    "lon": 130.933333
  },
  {
    "code": "AUMLL",
    "name": "Mooloolaba",
    "country": "AU",
    "lat": -26.683333,
    "lon": 153.133333
  },
  {
    "code": "AUMOK",
    "name": "Moorook",
    "country": "AU",
    "lat": -34.283333,
    "lon": 140.35
  },
  {
    "code": "AUMON",
    "name": "Montara Field",
    "country": "AU",
    "lat": -13.083333,
    "lon": 124.083333
  },
  {
    "code": "AUMOW",
    "name": "Mowbray Heights",
    "country": "AU",
    "lat": -41.383333,
    "lon": 147.133333
  },
  {
    "code": "AUMQI",
    "name": "Macquarie Island",
    "country": "AU",
    "lat": -54.483333,
    "lon": 158.933333
  },
  {
    "code": "AUMRK",
    "name": "Macquarie Park",
    "country": "AU",
    "lat": -33.766667,
    "lon": 151.116667
  },
  {
    "code": "AUMWA",
    "name": "Mulwala",
    "country": "AU",
    "lat": -36.0,
    "lon": 146.0
  },
  {
    "code": "AUNB2",
    "name": "North Bridge",
    "country": "AU",
    "lat": -33.8,
    "lon": 151.216667
  },
  {
    "code": "AUNEQ",
    "name": "Nericon",
    "country": "AU",
    "lat": -34.2,
    "lon": 146.033333
  },
  {
    "code": "AUNGH",
    "name": "Nganhurra",
    "country": "AU",
    "lat": -21.483333,
    "lon": 114.0
  },
  {
    "code": "AUNHU",
    "name": "Nhulunbuy",
    "country": "AU",
    "lat": -12.183333,
    "lon": 136.783333
  },
  {
    "code": "AUNIV",
    "name": "Ningaloo Vision",
    "country": "AU",
    "lat": -21.4,
    "lon": 114.083333
  },
  {
    "code": "AUNLK",
    "name": "New Norfolk",
    "country": "AU",
    "lat": -42.783333,
    "lon": 147.066667
  },
  {
    "code": "AUNSB",
    "name": "Broke",
    "country": "AU",
    "lat": -32.75,
    "lon": 151.1
  },
  {
    "code": "AUOKF",
    "name": "Oak Flats",
    "country": "AU",
    "lat": -34.55,
    "lon": 150.816667
  },
  {
    "code": "AUONS",
    "name": "Onslow",
    "country": "AU",
    "lat": -21.65,
    "lon": 115.1
  },
  {
    "code": "AUP6D",
    "name": "Aspendale",
    "country": "AU",
    "lat": -38.033333,
    "lon": 145.1
  },
  {
    "code": "AUPAG",
    "name": "Paddington",
    "country": "AU",
    "lat": -33.883333,
    "lon": 151.216667
  },
  {
    "code": "AUPAL",
    "name": "Palmerston",
    "country": "AU",
    "lat": -12.466667,
    "lon": 130.833333
  },
  {
    "code": "AUPBN",
    "name": "Port of Brisbane",
    "country": "AU",
    "lat": -27.383333,
    "lon": 153.166667
  },
  {
    "code": "AUPDI",
    "name": "Port Denison",
    "country": "AU",
    "lat": -29.266667,
    "lon": 114.933333
  },
  {
    "code": "AUPEN",
    "name": "Pendle Hills",
    "country": "AU",
    "lat": -33.8,
    "lon": 150.95
  },
  {
    "code": "AUPER",
    "name": "Perth",
    "country": "AU",
    "lat": -31.95,
    "lon": 115.85
  },
  {
    "code": "AUPHP",
    "name": "Point Henry Pier/Melbourne",
    "country": "AU",
    "lat": -38.116667,
    "lon": 144.433333
  },
  {
    "code": "AUPHR",
    "name": "Prahran",
    "country": "AU",
    "lat": -37.85,
    "lon": 145.0
  },
  {
    "code": "AUPIC",
    "name": "Picton",
    "country": "AU",
    "lat": -34.183333,
    "lon": 150.6
  },
  {
    "code": "AUPIS",
    "name": "Phillip Island",
    "country": "AU",
    "lat": -38.483333,
    "lon": 145.233333
  },
  {
    "code": "AUPKY",
    "name": "Port Kenny",
    "country": "AU",
    "lat": -33.166667,
    "lon": 134.683333
  },
  {
    "code": "AUPOR",
    "name": "Port Melbourne",
    "country": "AU",
    "lat": -37.833333,
    "lon": 144.933333
  },
  {
    "code": "AUPTW",
    "name": "Port Willunga",
    "country": "AU",
    "lat": -35.266667,
    "lon": 138.45
  },
  {
    "code": "AUPYE",
    "name": "Pyrenees",
    "country": "AU",
    "lat": -37.083333,
    "lon": 143.483333
  },
  {
    "code": "AUPYR",
    "name": "Pyrmont",
    "country": "AU",
    "lat": -33.866667,
    "lon": 151.183333
  },
  {
    "code": "AUPYT",
    "name": "Pleystowe",
    "country": "AU",
    "lat": -21.15,
    "lon": 149.016667
  },
  {
    "code": "AURAF",
    "name": "Raffles Bay",
    "country": "AU",
    "lat": -11.266667,
    "lon": 132.383333
  },
  {
    "code": "AURDS",
    "name": "Rhodes",
    "country": "AU",
    "lat": -33.833333,
    "lon": 151.083333
  },
  {
    "code": "AUREV",
    "name": "Revesby",
    "country": "AU",
    "lat": -33.95,
    "lon": 151.0
  },
  {
    "code": "AURLL",
    "name": "Reynella",
    "country": "AU",
    "lat": -36.1,
    "lon": 138.533333
  },
  {
    "code": "AURNB",
    "name": "Rosslyn Bay",
    "country": "AU",
    "lat": -23.166667,
    "lon": 150.783333
  },
  {
    "code": "AUROB",
    "name": "Robe",
    "country": "AU",
    "lat": -37.183333,
    "lon": 139.75
  },
  {
    "code": "AUROZ",
    "name": "Rozelle",
    "country": "AU",
    "lat": -33.85,
    "lon": 151.166667
  },
  {
    "code": "AURYP",
    "name": "Rocky Point",
    "country": "AU",
    "lat": -33.5,
    "lon": 123.983333
  },
  {
    "code": "AUSBN",
    "name": "South Brisbane",
    "country": "AU",
    "lat": -27.466667,
    "lon": 153.016667
  },
  {
    "code": "AUSCL",
    "name": "Clare",
    "country": "AU",
    "lat": -33.833333,
    "lon": 138.6
  },
  {
    "code": "AUSCY",
    "name": "Scoresby",
    "country": "AU",
    "lat": -37.9,
    "lon": 145.216667
  },
  {
    "code": "AUSGT",
    "name": "Sandgate",
    "country": "AU",
    "lat": -32.866667,
    "lon": 151.7
  },
  {
    "code": "AUSHC",
    "name": "Crux",
    "country": "AU",
    "lat": -12.95,
    "lon": 124.433333
  },
  {
    "code": "AUSKA",
    "name": "Skardon River",
    "country": "AU",
    "lat": -11.75,
    "lon": 142.016667
  },
  {
    "code": "AUSMR",
    "name": "Seventeen Mile Rocks/Brisbane",
    "country": "AU",
    "lat": -27.55,
    "lon": 152.95
  },
  {
    "code": "AUSOL",
    "name": "Shea Oak Log",
    "country": "AU",
    "lat": -34.516667,
    "lon": 138.816667
  },
  {
    "code": "AUSPO",
    "name": "Spreyton",
    "country": "AU",
    "lat": -41.216667,
    "lon": 146.35
  },
  {
    "code": "AUSTR",
    "name": "South Trees",
    "country": "AU",
    "lat": -23.9,
    "lon": 151.283333
  },
  {
    "code": "AUSUH",
    "name": "Surry Hills",
    "country": "AU",
    "lat": -33.883333,
    "lon": 151.216667
  },
  {
    "code": "AUSYD",
    "name": "Sydney",
    "country": "AU",
    "lat": -33.85,
    "lon": 151.2
  },
  {
    "code": "AUSYL",
    "name": "Sylvania",
    "country": "AU",
    "lat": -34.016667,
    "lon": 151.1
  },
  {
    "code": "AUT3P",
    "name": "Port Hacking",
    "country": "AU",
    "lat": -34.066667,
    "lon": 151.133333
  },
  {
    "code": "AUTHS",
    "name": "Tweed Heads South",
    "country": "AU",
    "lat": -28.2,
    "lon": 153.533333
  },
  {
    "code": "AUTOL",
    "name": "Toombul",
    "country": "AU",
    "lat": -27.4,
    "lon": 153.05
  },
  {
    "code": "AUTOR",
    "name": "Toronto",
    "country": "AU",
    "lat": -33.0,
    "lon": 151.6
  },
  {
    "code": "AUTRD",
    "name": "Tooradin",
    "country": "AU",
    "lat": -38.216667,
    "lon": 145.383333
  },
  {
    "code": "AUTRI",
    "name": "Troughton Island",
    "country": "AU",
    "lat": -13.75,
    "lon": 126.133333
  },
  {
    "code": "AUTTS",
    "name": "Blackmans Bay",
    "country": "AU",
    "lat": -42.983333,
    "lon": 147.316667
  },
  {
    "code": "AUULA",
    "name": "Ulladulla",
    "country": "AU",
    "lat": -35.35,
    "lon": 150.416667
  },
  {
    "code": "AUUMB",
    "name": "Umbakumba",
    "country": "AU",
    "lat": -13.85,
    "lon": 136.8
  },
  {
    "code": "AUVGH",
    "name": "Van Gogh Terminal",
    "country": "AU",
    "lat": -21.4,
    "lon": 114.083333
  },
  {
    "code": "AUVIC",
    "name": "Newtown",
    "country": "AU",
    "lat": -37.7,
    "lon": 143.65
  },
  {
    "code": "AUWBT",
    "name": "Woollybutt (Oil facility)",
    "country": "AU",
    "lat": -21.05,
    "lon": 114.866667
  },
  {
    "code": "AUWHL",
    "name": "Welshpool",
    "country": "AU",
    "lat": -38.666667,
    "lon": 146.433333
  },
  {
    "code": "AUWIH",
    "name": "Wingham",
    "country": "AU",
    "lat": -31.866667,
    "lon": 152.366667
  },
  {
    "code": "AUWNB",
    "name": "Withnell Bay",
    "country": "AU",
    "lat": -20.583333,
    "lon": 116.783333
  },
  {
    "code": "AUWOO",
    "name": "Woolloomooloo",
    "country": "AU",
    "lat": -33.866667,
    "lon": 151.216667
  },
  {
    "code": "AUWRB",
    "name": "Werribee",
    "country": "AU",
    "lat": -37.9,
    "lon": 144.65
  },
  {
    "code": "AUWSI",
    "name": "Whitsunday Island",
    "country": "AU",
    "lat": -20.25,
    "lon": 149.016667
  },
  {
    "code": "AUWSN",
    "name": "Warners Bay",
    "country": "AU",
    "lat": -32.966667,
    "lon": 151.65
  },
  {
    "code": "AUWTN",
    "name": "Webberton",
    "country": "AU",
    "lat": -28.75,
    "lon": 114.616667
  },
  {
    "code": "AUWTW",
    "name": "Waterways",
    "country": "AU",
    "lat": -38.0,
    "lon": 145.116667
  },
  {
    "code": "AUWWP",
    "name": "Wentworth Point",
    "country": "AU",
    "lat": -33.833333,
    "lon": 151.066667
  },
  {
    "code": "AUYRR",
    "name": "Yarra Junction",
    "country": "AU",
    "lat": -37.783333,
    "lon": 145.616667
  },
  {
    "code": "AWAUA",
    "name": "Aruba",
    "country": "AW",
    "lat": 12.5,
    "lon": -69.966667
  },
  {
    "code": "AWBAR",
    "name": "Barcadera",
    "country": "AW",
    "lat": 12.483333,
    "lon": -69.983333
  },
  {
    "code": "AWBUS",
    "name": "Bushiribana",
    "country": "AW",
    "lat": 12.55,
    "lon": -69.966667
  },
  {
    "code": "AXMHQ",
    "name": "Maarianhamina (Mariehamn)",
    "country": "AX",
    "lat": 60.1,
    "lon": 19.95
  },
  {
    "code": "AXMHQ",
    "name": "Mariehamn (Maarianhamina)",
    "country": "AX",
    "lat": 60.1,
    "lon": 19.95
  },
  {
    "code": "AZALA",
    "name": "Alat",
    "country": "AZ",
    "lat": 39.95,
    "lon": 49.4
  },
  {
    "code": "AZKMZ",
    "name": "Khachmaz",
    "country": "AZ",
    "lat": 41.983333,
    "lon": 47.583333
  },
  {
    "code": "AZQDG",
    "name": "Qaradag",
    "country": "AZ",
    "lat": 40.25,
    "lon": 49.6
  },
  {
    "code": "AZSHI",
    "name": "Shirvan",
    "country": "AZ",
    "lat": 39.916667,
    "lon": 48.916667
  },
  {
    "code": "AZSUQ",
    "name": "Sumqayit",
    "country": "AZ",
    "lat": 40.583333,
    "lon": 49.666667
  },
  {
    "code": "BA4CA",
    "name": "Cazin",
    "country": "BA",
    "lat": 44.966667,
    "lon": 15.933333
  },
  {
    "code": "BADOJ",
    "name": "Domaljevac",
    "country": "BA",
    "lat": 45.05,
    "lon": 18.566667
  },
  {
    "code": "BAFOJ",
    "name": "Fojnica",
    "country": "BA",
    "lat": 43.95,
    "lon": 17.9
  },
  {
    "code": "BAJBA",
    "name": "Jablanica",
    "country": "BA",
    "lat": 43.65,
    "lon": 17.75
  },
  {
    "code": "BAMAG",
    "name": "Maglaj",
    "country": "BA",
    "lat": 44.533333,
    "lon": 18.083333
  },
  {
    "code": "BANEM",
    "name": "Neum",
    "country": "BA",
    "lat": 42.916667,
    "lon": 17.616667
  },
  {
    "code": "BASMT",
    "name": "Sanski Most",
    "country": "BA",
    "lat": 44.766667,
    "lon": 16.666667
  },
  {
    "code": "BAVGS",
    "name": "Vogosca",
    "country": "BA",
    "lat": 43.9,
    "lon": 18.35
  },
  {
    "code": "BAZNK",
    "name": "Zvornik",
    "country": "BA",
    "lat": 44.383333,
    "lon": 19.1
  },
  {
    "code": "BBSTM",
    "name": "Saint Michael",
    "country": "BB",
    "lat": 13.116667,
    "lon": -59.6
  },
  {
    "code": "BDASJ",
    "name": "Ashuganj",
    "country": "BD",
    "lat": 24.033333,
    "lon": 91.016667
  },
  {
    "code": "BDBNP",
    "name": "Benapole",
    "country": "BD",
    "lat": 23.05,
    "lon": 88.9
  },
  {
    "code": "BDCGP",
    "name": "Chattogram",
    "country": "BD",
    "lat": 22.333333,
    "lon": 91.833333
  },
  {
    "code": "BDMUN",
    "name": "Munshiganj",
    "country": "BD",
    "lat": 23.55,
    "lon": 90.533333
  },
  {
    "code": "BDPAY",
    "name": "Payra Port",
    "country": "BD",
    "lat": 21.933333,
    "lon": 90.266667
  },
  {
    "code": "BDPCR",
    "name": "Panchashar",
    "country": "BD",
    "lat": 23.566667,
    "lon": 90.5
  },
  {
    "code": "BDPGN",
    "name": "Pangaon",
    "country": "BD",
    "lat": 23.65,
    "lon": 90.45
  },
  {
    "code": "BE7PD",
    "name": "Athis",
    "country": "BE",
    "lat": 50.366667,
    "lon": 3.766667
  },
  {
    "code": "BE9IR",
    "name": "Eben-Emael",
    "country": "BE",
    "lat": 50.8,
    "lon": 5.666667
  },
  {
    "code": "BEAAB",
    "name": "Aalst",
    "country": "BE",
    "lat": 50.933333,
    "lon": 4.033333
  },
  {
    "code": "BEAAL",
    "name": "Aalter",
    "country": "BE",
    "lat": 51.083333,
    "lon": 3.45
  },
  {
    "code": "BEADK",
    "name": "Adinkerke",
    "country": "BE",
    "lat": 51.066667,
    "lon": 2.6
  },
  {
    "code": "BEAEJ",
    "name": "Arendonk",
    "country": "BE",
    "lat": 51.316667,
    "lon": 5.083333
  },
  {
    "code": "BEAFN",
    "name": "Afsnee",
    "country": "BE",
    "lat": 51.033333,
    "lon": 3.666667
  },
  {
    "code": "BEAGT",
    "name": "Argenteau",
    "country": "BE",
    "lat": 50.7,
    "lon": 5.7
  },
  {
    "code": "BEAHE",
    "name": "Antheit",
    "country": "BE",
    "lat": 50.55,
    "lon": 5.216667
  },
  {
    "code": "BEAMY",
    "name": "Amay",
    "country": "BE",
    "lat": 50.55,
    "lon": 5.316667
  },
  {
    "code": "BEANB",
    "name": "Angleur",
    "country": "BE",
    "lat": 50.616667,
    "lon": 5.583333
  },
  {
    "code": "BEAND",
    "name": "Andenne",
    "country": "BE",
    "lat": 50.483333,
    "lon": 5.1
  },
  {
    "code": "BEANH",
    "name": "Anhée",
    "country": "BE",
    "lat": 50.316667,
    "lon": 4.883333
  },
  {
    "code": "BEANR",
    "name": "Antwerpen",
    "country": "BE",
    "lat": 51.216667,
    "lon": 4.416667
  },
  {
    "code": "BEAPL",
    "name": "Appels",
    "country": "BE",
    "lat": 51.033333,
    "lon": 4.066667
  },
  {
    "code": "BEAPS",
    "name": "Ampsin",
    "country": "BE",
    "lat": 50.533333,
    "lon": 5.283333
  },
  {
    "code": "BEAPT",
    "name": "Appelterre-Eichem",
    "country": "BE",
    "lat": 50.816667,
    "lon": 3.966667
  },
  {
    "code": "BEASP",
    "name": "Asper",
    "country": "BE",
    "lat": 50.916667,
    "lon": 3.65
  },
  {
    "code": "BEASR",
    "name": "Anseremme",
    "country": "BE",
    "lat": 50.25,
    "lon": 4.9
  },
  {
    "code": "BEAST",
    "name": "Astene",
    "country": "BE",
    "lat": 50.983333,
    "lon": 3.55
  },
  {
    "code": "BEATH",
    "name": "Ath",
    "country": "BE",
    "lat": 50.616667,
    "lon": 3.766667
  },
  {
    "code": "BEATO",
    "name": "Antoing",
    "country": "BE",
    "lat": 50.566667,
    "lon": 3.45
  },
  {
    "code": "BEAVE",
    "name": "Annevoie",
    "country": "BE",
    "lat": 50.333333,
    "lon": 4.833333
  },
  {
    "code": "BEAVL",
    "name": "Avelgem",
    "country": "BE",
    "lat": 50.766667,
    "lon": 3.433333
  },
  {
    "code": "BEAVS",
    "name": "Auvelais",
    "country": "BE",
    "lat": 50.45,
    "lon": 4.616667
  },
  {
    "code": "BEBAI",
    "name": "Baillonville",
    "country": "BE",
    "lat": 50.283333,
    "lon": 5.333333
  },
  {
    "code": "BEBAN",
    "name": "Ben-Ahin",
    "country": "BE",
    "lat": 50.516667,
    "lon": 5.166667
  },
  {
    "code": "BEBAT",
    "name": "Battel",
    "country": "BE",
    "lat": 51.05,
    "lon": 4.45
  },
  {
    "code": "BEBAZ",
    "name": "Bazel",
    "country": "BE",
    "lat": 51.15,
    "lon": 4.3
  },
  {
    "code": "BEBBG",
    "name": "Blankenberge",
    "country": "BE",
    "lat": 51.316667,
    "lon": 3.133333
  },
  {
    "code": "BEBCM",
    "name": "Berchem",
    "country": "BE",
    "lat": 50.783333,
    "lon": 3.5
  },
  {
    "code": "BEBCR",
    "name": "Bellecourt",
    "country": "BE",
    "lat": 50.483333,
    "lon": 4.25
  },
  {
    "code": "BEBDU",
    "name": "Baudour",
    "country": "BE",
    "lat": 50.483333,
    "lon": 3.816667
  },
  {
    "code": "BEBER",
    "name": "Beerse",
    "country": "BE",
    "lat": 51.316667,
    "lon": 4.866667
  },
  {
    "code": "BEBGK",
    "name": "Balgerhoek",
    "country": "BE",
    "lat": 51.2,
    "lon": 3.516667
  },
  {
    "code": "BEBGN",
    "name": "Briegden",
    "country": "BE",
    "lat": 50.866667,
    "lon": 5.616667
  },
  {
    "code": "BEBGS",
    "name": "Brugge (Bruges)",
    "country": "BE",
    "lat": 51.216667,
    "lon": 3.233333
  },
  {
    "code": "BEBHE",
    "name": "Boekhoute",
    "country": "BE",
    "lat": 51.25,
    "lon": 3.716667
  },
  {
    "code": "BEBHR",
    "name": "Bléharies",
    "country": "BE",
    "lat": 50.516667,
    "lon": 3.4
  },
  {
    "code": "BEBHU",
    "name": "Buggenhout",
    "country": "BE",
    "lat": 51.016667,
    "lon": 4.2
  },
  {
    "code": "BEBLE",
    "name": "Balen",
    "country": "BE",
    "lat": 51.166667,
    "lon": 5.15
  },
  {
    "code": "BEBLO",
    "name": "Beloeil",
    "country": "BE",
    "lat": 50.55,
    "lon": 3.716667
  },
  {
    "code": "BEBLT",
    "name": "Blaton",
    "country": "BE",
    "lat": 50.5,
    "lon": 3.65
  },
  {
    "code": "BEBMB",
    "name": "Boortmeerbeek",
    "country": "BE",
    "lat": 50.983333,
    "lon": 4.566667
  },
  {
    "code": "BEBNU",
    "name": "Berneau",
    "country": "BE",
    "lat": 50.75,
    "lon": 5.733333
  },
  {
    "code": "BEBO2",
    "name": "Bougnies",
    "country": "BE",
    "lat": 50.383333,
    "lon": 3.933333
  },
  {
    "code": "BEBOA",
    "name": "Bas-Oha",
    "country": "BE",
    "lat": 50.516667,
    "lon": 5.183333
  },
  {
    "code": "BEBOC",
    "name": "Bocholt",
    "country": "BE",
    "lat": 51.166667,
    "lon": 5.583333
  },
  {
    "code": "BEBOM",
    "name": "Boom",
    "country": "BE",
    "lat": 51.083333,
    "lon": 4.366667
  },
  {
    "code": "BEBON",
    "name": "Bornem",
    "country": "BE",
    "lat": 51.1,
    "lon": 4.233333
  },
  {
    "code": "BEBOO",
    "name": "Boorsem",
    "country": "BE",
    "lat": 50.933333,
    "lon": 5.716667
  },
  {
    "code": "BEBRE",
    "name": "Bree",
    "country": "BE",
    "lat": 51.133333,
    "lon": 5.6
  },
  {
    "code": "BEBRM",
    "name": "Beernem",
    "country": "BE",
    "lat": 51.15,
    "lon": 3.333333
  },
  {
    "code": "BEBRT",
    "name": "Berendrecht",
    "country": "BE",
    "lat": 51.333333,
    "lon": 4.316667
  },
  {
    "code": "BEBRU",
    "name": "Brussel (Bruxelles)",
    "country": "BE",
    "lat": 50.833333,
    "lon": 4.333333
  },
  {
    "code": "BEBRU",
    "name": "Bruxelles (Brussel)",
    "country": "BE",
    "lat": 50.833333,
    "lon": 4.333333
  },
  {
    "code": "BEBRY",
    "name": "Bruyelle",
    "country": "BE",
    "lat": 50.55,
    "lon": 3.416667
  },
  {
    "code": "BEBSE",
    "name": "Bissegem",
    "country": "BE",
    "lat": 50.816667,
    "lon": 3.216667
  },
  {
    "code": "BEBSI",
    "name": "Labuissière",
    "country": "BE",
    "lat": 50.316667,
    "lon": 4.166667
  },
  {
    "code": "BEBSR",
    "name": "Baasrode",
    "country": "BE",
    "lat": 51.033333,
    "lon": 4.166667
  },
  {
    "code": "BEBSU",
    "name": "Bossuit",
    "country": "BE",
    "lat": 50.75,
    "lon": 3.4
  },
  {
    "code": "BEBTX",
    "name": "Bertrix",
    "country": "BE",
    "lat": 49.85,
    "lon": 5.25
  },
  {
    "code": "BEBUD",
    "name": "Burcht",
    "country": "BE",
    "lat": 51.2,
    "lon": 4.35
  },
  {
    "code": "BEBVE",
    "name": "Bever",
    "country": "BE",
    "lat": 50.716667,
    "lon": 3.933333
  },
  {
    "code": "BEBVM",
    "name": "Bouvignes-sur-Meuse",
    "country": "BE",
    "lat": 50.266667,
    "lon": 4.9
  },
  {
    "code": "BEBVO",
    "name": "Beverlo",
    "country": "BE",
    "lat": 51.083333,
    "lon": 5.2
  },
  {
    "code": "BEBWN",
    "name": "Warneton",
    "country": "BE",
    "lat": 50.75,
    "lon": 2.95
  },
  {
    "code": "BECBQ",
    "name": "Clabecq",
    "country": "BE",
    "lat": 50.683333,
    "lon": 4.216667
  },
  {
    "code": "BECCS",
    "name": "Courcelles",
    "country": "BE",
    "lat": 50.466667,
    "lon": 4.366667
  },
  {
    "code": "BECLN",
    "name": "Calonne",
    "country": "BE",
    "lat": 50.566667,
    "lon": 3.433333
  },
  {
    "code": "BECOM",
    "name": "Comines",
    "country": "BE",
    "lat": 50.766667,
    "lon": 2.983333
  },
  {
    "code": "BECOU",
    "name": "Couillet",
    "country": "BE",
    "lat": 50.383333,
    "lon": 4.45
  },
  {
    "code": "BECRA",
    "name": "Cheratte",
    "country": "BE",
    "lat": 50.683333,
    "lon": 5.666667
  },
  {
    "code": "BECRL",
    "name": "Charleroi",
    "country": "BE",
    "lat": 50.416667,
    "lon": 4.433333
  },
  {
    "code": "BECRQ",
    "name": "Chercq",
    "country": "BE",
    "lat": 50.583333,
    "lon": 3.4
  },
  {
    "code": "BECTA",
    "name": "Chertal",
    "country": "BE",
    "lat": 50.683333,
    "lon": 5.666667
  },
  {
    "code": "BECTL",
    "name": "Châtelineau",
    "country": "BE",
    "lat": 50.416667,
    "lon": 4.516667
  },
  {
    "code": "BEDDR",
    "name": "Dendermonde",
    "country": "BE",
    "lat": 51.033333,
    "lon": 4.116667
  },
  {
    "code": "BEDEG",
    "name": "Deurne",
    "country": "BE",
    "lat": 51.216667,
    "lon": 4.466667
  },
  {
    "code": "BEDEL",
    "name": "Doel",
    "country": "BE",
    "lat": 51.316667,
    "lon": 4.266667
  },
  {
    "code": "BEDEZ",
    "name": "Deinze",
    "country": "BE",
    "lat": 50.983333,
    "lon": 3.533333
  },
  {
    "code": "BEDGN",
    "name": "Drongen",
    "country": "BE",
    "lat": 51.05,
    "lon": 3.666667
  },
  {
    "code": "BEDIA",
    "name": "Dinant",
    "country": "BE",
    "lat": 50.266667,
    "lon": 4.916667
  },
  {
    "code": "BEDIK",
    "name": "Diksmuide",
    "country": "BE",
    "lat": 51.033333,
    "lon": 2.866667
  },
  {
    "code": "BEDKN",
    "name": "Daknam",
    "country": "BE",
    "lat": 51.133333,
    "lon": 3.983333
  },
  {
    "code": "BEDLS",
    "name": "Dilsen",
    "country": "BE",
    "lat": 51.033333,
    "lon": 5.733333
  },
  {
    "code": "BEDNB",
    "name": "Denderbelle",
    "country": "BE",
    "lat": 51.0,
    "lon": 4.083333
  },
  {
    "code": "BEDPE",
    "name": "De Pinte",
    "country": "BE",
    "lat": 51.0,
    "lon": 3.65
  },
  {
    "code": "BEDPK",
    "name": "Diepenbeek",
    "country": "BE",
    "lat": 50.9,
    "lon": 5.4
  },
  {
    "code": "BEDPY",
    "name": "Dampremy",
    "country": "BE",
    "lat": 50.416667,
    "lon": 4.4
  },
  {
    "code": "BEDRW",
    "name": "Denderleeuw",
    "country": "BE",
    "lat": 50.883333,
    "lon": 4.066667
  },
  {
    "code": "BEDSE",
    "name": "Dessel",
    "country": "BE",
    "lat": 51.233333,
    "lon": 5.116667
  },
  {
    "code": "BEDSL",
    "name": "Desselgem",
    "country": "BE",
    "lat": 50.883333,
    "lon": 3.35
  },
  {
    "code": "BEDUF",
    "name": "Duffel",
    "country": "BE",
    "lat": 51.1,
    "lon": 4.516667
  },
  {
    "code": "BEDXN",
    "name": "Deux-Acren",
    "country": "BE",
    "lat": 50.733333,
    "lon": 3.85
  },
  {
    "code": "BEEAM",
    "name": "Ename",
    "country": "BE",
    "lat": 50.85,
    "lon": 3.633333
  },
  {
    "code": "BEEBM",
    "name": "Emblem",
    "country": "BE",
    "lat": 51.166667,
    "lon": 4.6
  },
  {
    "code": "BEEBZ",
    "name": "Eigenbilzen",
    "country": "BE",
    "lat": 50.866667,
    "lon": 5.583333
  },
  {
    "code": "BEECH",
    "name": "Mechelen",
    "country": "BE",
    "lat": 51.033333,
    "lon": 4.466667
  },
  {
    "code": "BEEEK",
    "name": "Eeklo",
    "country": "BE",
    "lat": 51.183333,
    "lon": 3.566667
  },
  {
    "code": "BEEET",
    "name": "Éthe",
    "country": "BE",
    "lat": 49.583333,
    "lon": 5.583333
  },
  {
    "code": "BEEFS",
    "name": "Escanaffles",
    "country": "BE",
    "lat": 50.75,
    "lon": 3.433333
  },
  {
    "code": "BEEHT",
    "name": "Eindhout",
    "country": "BE",
    "lat": 51.1,
    "lon": 5.0
  },
  {
    "code": "BEEIN",
    "name": "Eine",
    "country": "BE",
    "lat": 50.866667,
    "lon": 3.616667
  },
  {
    "code": "BEEKE",
    "name": "Ekeren",
    "country": "BE",
    "lat": 51.283333,
    "lon": 4.416667
  },
  {
    "code": "BEEKS",
    "name": "Eksaarde",
    "country": "BE",
    "lat": 51.15,
    "lon": 3.966667
  },
  {
    "code": "BEELS",
    "name": "Melsen",
    "country": "BE",
    "lat": 50.966667,
    "lon": 3.7
  },
  {
    "code": "BEEMP",
    "name": "Estaimpuis",
    "country": "BE",
    "lat": 50.7,
    "lon": 3.25
  },
  {
    "code": "BEENG",
    "name": "Engis",
    "country": "BE",
    "lat": 50.583333,
    "lon": 5.416667
  },
  {
    "code": "BEEQE",
    "name": "Eke",
    "country": "BE",
    "lat": 50.95,
    "lon": 3.633333
  },
  {
    "code": "BEEQM",
    "name": "Esquelmes",
    "country": "BE",
    "lat": 50.666667,
    "lon": 3.333333
  },
  {
    "code": "BEERE",
    "name": "Ertvelde",
    "country": "BE",
    "lat": 51.183333,
    "lon": 3.75
  },
  {
    "code": "BEESD",
    "name": "Eisden",
    "country": "BE",
    "lat": 50.983333,
    "lon": 5.716667
  },
  {
    "code": "BEEVM",
    "name": "Evergem",
    "country": "BE",
    "lat": 51.116667,
    "lon": 3.7
  },
  {
    "code": "BEFCS",
    "name": "Farciennes",
    "country": "BE",
    "lat": 50.433333,
    "lon": 4.55
  },
  {
    "code": "BEFEY",
    "name": "Feluy",
    "country": "BE",
    "lat": 50.566667,
    "lon": 4.25
  },
  {
    "code": "BEFFX",
    "name": "Floriffoux",
    "country": "BE",
    "lat": 50.45,
    "lon": 4.766667
  },
  {
    "code": "BEFLN",
    "name": "Flône",
    "country": "BE",
    "lat": 50.566667,
    "lon": 5.333333
  },
  {
    "code": "BEFLO",
    "name": "Floreffe",
    "country": "BE",
    "lat": 50.433333,
    "lon": 4.783333
  },
  {
    "code": "BEFMA",
    "name": "Flémalle",
    "country": "BE",
    "lat": 50.6,
    "lon": 5.466667
  },
  {
    "code": "BEFNR",
    "name": "Franière",
    "country": "BE",
    "lat": 50.433333,
    "lon": 4.733333
  },
  {
    "code": "BEFRM",
    "name": "Fortem",
    "country": "BE",
    "lat": 51.016667,
    "lon": 2.733333
  },
  {
    "code": "BEFVT",
    "name": "Fontaine-Valmont",
    "country": "BE",
    "lat": 50.316667,
    "lon": 4.2
  },
  {
    "code": "BEFWI",
    "name": "Flawinne",
    "country": "BE",
    "lat": 50.466667,
    "lon": 4.8
  },
  {
    "code": "BEGBB",
    "name": "Grobbendonk",
    "country": "BE",
    "lat": 51.2,
    "lon": 4.716667
  },
  {
    "code": "BEGBH",
    "name": "Genenbos",
    "country": "BE",
    "lat": 51.016667,
    "lon": 5.233333
  },
  {
    "code": "BEGBU",
    "name": "Gentbrugge",
    "country": "BE",
    "lat": 51.05,
    "lon": 3.75
  },
  {
    "code": "BEGDE",
    "name": "Godsheide",
    "country": "BE",
    "lat": 50.933333,
    "lon": 5.383333
  },
  {
    "code": "BEGDN",
    "name": "Godinne",
    "country": "BE",
    "lat": 50.35,
    "lon": 4.866667
  },
  {
    "code": "BEGEA",
    "name": "Geraardsbergen",
    "country": "BE",
    "lat": 50.766667,
    "lon": 3.866667
  },
  {
    "code": "BEGEL",
    "name": "Geel",
    "country": "BE",
    "lat": 51.166667,
    "lon": 5.0
  },
  {
    "code": "BEGGM",
    "name": "Grembergen",
    "country": "BE",
    "lat": 51.05,
    "lon": 4.1
  },
  {
    "code": "BEGHI",
    "name": "Saint-Ghislain",
    "country": "BE",
    "lat": 50.45,
    "lon": 3.816667
  },
  {
    "code": "BEGHL",
    "name": "Ghlin",
    "country": "BE",
    "lat": 50.466667,
    "lon": 3.883333
  },
  {
    "code": "BEGLK",
    "name": "Gellik",
    "country": "BE",
    "lat": 50.883333,
    "lon": 5.6
  },
  {
    "code": "BEGNE",
    "name": "Gent (Ghent)",
    "country": "BE",
    "lat": 51.05,
    "lon": 3.716667
  },
  {
    "code": "BEGNK",
    "name": "Genk",
    "country": "BE",
    "lat": 50.966667,
    "lon": 5.5
  },
  {
    "code": "BEGOS",
    "name": "Gosselies",
    "country": "BE",
    "lat": 50.466667,
    "lon": 4.416667
  },
  {
    "code": "BEGRB",
    "name": "Grimbergen",
    "country": "BE",
    "lat": 50.933333,
    "lon": 4.383333
  },
  {
    "code": "BEGRO",
    "name": "Groot Bijgaarden",
    "country": "BE",
    "lat": 50.866667,
    "lon": 4.266667
  },
  {
    "code": "BEGVR",
    "name": "Gavere",
    "country": "BE",
    "lat": 50.933333,
    "lon": 3.666667
  },
  {
    "code": "BEHAM",
    "name": "Hamsehoeven",
    "country": "BE",
    "lat": 51.116667,
    "lon": 5.183333
  },
  {
    "code": "BEHAR",
    "name": "Haren",
    "country": "BE",
    "lat": 50.883333,
    "lon": 4.416667
  },
  {
    "code": "BEHBE",
    "name": "Hansbeke",
    "country": "BE",
    "lat": 51.066667,
    "lon": 3.533333
  },
  {
    "code": "BEHBN",
    "name": "Hoboken",
    "country": "BE",
    "lat": 51.166667,
    "lon": 4.35
  },
  {
    "code": "BEHCS",
    "name": "Harchies",
    "country": "BE",
    "lat": 50.483333,
    "lon": 3.683333
  },
  {
    "code": "BEHCT",
    "name": "Haccourt",
    "country": "BE",
    "lat": 50.733333,
    "lon": 5.666667
  },
  {
    "code": "BEHDK",
    "name": "Heindonk",
    "country": "BE",
    "lat": 51.066667,
    "lon": 4.4
  },
  {
    "code": "BEHEE",
    "name": "Heer",
    "country": "BE",
    "lat": 50.166667,
    "lon": 4.833333
  },
  {
    "code": "BEHEJ",
    "name": "Harelbeke",
    "country": "BE",
    "lat": 50.85,
    "lon": 3.3
  },
  {
    "code": "BEHER",
    "name": "Herentals",
    "country": "BE",
    "lat": 51.183333,
    "lon": 4.833333
  },
  {
    "code": "BEHET",
    "name": "Herent",
    "country": "BE",
    "lat": 51.2,
    "lon": 5.45
  },
  {
    "code": "BEHEX",
    "name": "Hemiksem",
    "country": "BE",
    "lat": 51.15,
    "lon": 4.35
  },
  {
    "code": "BEHFB",
    "name": "Halle",
    "country": "BE",
    "lat": 50.733333,
    "lon": 4.233333
  },
  {
    "code": "BEHGA",
    "name": "Houdeng-Aimeries",
    "country": "BE",
    "lat": 50.483333,
    "lon": 4.133333
  },
  {
    "code": "BEHGG",
    "name": "Houdeng-Goegnies",
    "country": "BE",
    "lat": 50.483333,
    "lon": 4.15
  },
  {
    "code": "BEHKN",
    "name": "Helkijn",
    "country": "BE",
    "lat": 50.733333,
    "lon": 3.383333
  },
  {
    "code": "BEHLU",
    "name": "Halluin",
    "country": "BE",
    "lat": 50.783333,
    "lon": 3.133333
  },
  {
    "code": "BEHMB",
    "name": "Ham-sur-Sambre",
    "country": "BE",
    "lat": 50.433333,
    "lon": 4.666667
  },
  {
    "code": "BEHMH",
    "name": "Hermalle-sous-Huy",
    "country": "BE",
    "lat": 50.55,
    "lon": 5.366667
  },
  {
    "code": "BEHMM",
    "name": "Hamme",
    "country": "BE",
    "lat": 51.083333,
    "lon": 3.533333
  },
  {
    "code": "BEHNA",
    "name": "Handzame",
    "country": "BE",
    "lat": 51.016667,
    "lon": 3.0
  },
  {
    "code": "BEHNS",
    "name": "Hensies",
    "country": "BE",
    "lat": 50.433333,
    "lon": 3.666667
  },
  {
    "code": "BEHOL",
    "name": "Hollain",
    "country": "BE",
    "lat": 50.533333,
    "lon": 3.416667
  },
  {
    "code": "BEHPD",
    "name": "Hastière-par-delà",
    "country": "BE",
    "lat": 50.216667,
    "lon": 4.833333
  },
  {
    "code": "BEHRE",
    "name": "Havré",
    "country": "BE",
    "lat": 50.466667,
    "lon": 4.033333
  },
  {
    "code": "BEHRP",
    "name": "Hourpes",
    "country": "BE",
    "lat": 50.366667,
    "lon": 4.283333
  },
  {
    "code": "BEHRS",
    "name": "Herstal",
    "country": "BE",
    "lat": 50.666667,
    "lon": 5.633333
  },
  {
    "code": "BEHSD",
    "name": "Hofstade",
    "country": "BE",
    "lat": 50.966667,
    "lon": 4.033333
  },
  {
    "code": "BEHSL",
    "name": "Sint-Huibrechts-Lille",
    "country": "BE",
    "lat": 51.216667,
    "lon": 5.483333
  },
  {
    "code": "BEHSS",
    "name": "Hasselt",
    "country": "BE",
    "lat": 50.933333,
    "lon": 5.333333
  },
  {
    "code": "BEHTJ",
    "name": "Hautrage",
    "country": "BE",
    "lat": 50.483333,
    "lon": 3.75
  },
  {
    "code": "BEHTM",
    "name": "Hermeton-sur-Meuse",
    "country": "BE",
    "lat": 50.2,
    "lon": 4.816667
  },
  {
    "code": "BEHUM",
    "name": "Humbeek",
    "country": "BE",
    "lat": 50.966667,
    "lon": 4.383333
  },
  {
    "code": "BEHUX",
    "name": "Houx",
    "country": "BE",
    "lat": 50.3,
    "lon": 4.9
  },
  {
    "code": "BEHUY",
    "name": "Huy",
    "country": "BE",
    "lat": 50.516667,
    "lon": 5.233333
  },
  {
    "code": "BEHVE",
    "name": "Hever",
    "country": "BE",
    "lat": 51.0,
    "lon": 4.55
  },
  {
    "code": "BEHYB",
    "name": "Herdersem",
    "country": "BE",
    "lat": 50.966667,
    "lon": 4.066667
  },
  {
    "code": "BEIGE",
    "name": "Ingelmunster",
    "country": "BE",
    "lat": 50.916667,
    "lon": 3.25
  },
  {
    "code": "BEISR",
    "name": "Isières",
    "country": "BE",
    "lat": 50.666667,
    "lon": 3.816667
  },
  {
    "code": "BEITR",
    "name": "Itter (Ittre)",
    "country": "BE",
    "lat": 50.65,
    "lon": 4.266667
  },
  {
    "code": "BEITR",
    "name": "Ittre (Itter)",
    "country": "BE",
    "lat": 50.65,
    "lon": 4.266667
  },
  {
    "code": "BEIZG",
    "name": "Izegem",
    "country": "BE",
    "lat": 50.916667,
    "lon": 3.2
  },
  {
    "code": "BEJAK",
    "name": "Jupille-sur-Meuse",
    "country": "BE",
    "lat": 50.65,
    "lon": 5.633333
  },
  {
    "code": "BEJAM",
    "name": "Jambes",
    "country": "BE",
    "lat": 50.45,
    "lon": 4.883333
  },
  {
    "code": "BEJAV",
    "name": "Java",
    "country": "BE",
    "lat": 50.516667,
    "lon": 5.15
  },
  {
    "code": "BEJKP",
    "name": "Sint-Jacobs-Kapelle",
    "country": "BE",
    "lat": 51.0,
    "lon": 2.816667
  },
  {
    "code": "BEJPS",
    "name": "Jemeppe-sur-Sambre",
    "country": "BE",
    "lat": 50.466667,
    "lon": 4.666667
  },
  {
    "code": "BEKAI",
    "name": "Kain",
    "country": "BE",
    "lat": 50.633333,
    "lon": 3.366667
  },
  {
    "code": "BEKAN",
    "name": "Canne (Kanne)",
    "country": "BE",
    "lat": 50.816667,
    "lon": 5.666667
  },
  {
    "code": "BEKAN",
    "name": "Kanne (Canne)",
    "country": "BE",
    "lat": 50.816667,
    "lon": 5.666667
  },
  {
    "code": "BEKCT",
    "name": "Kachtem",
    "country": "BE",
    "lat": 50.933333,
    "lon": 3.183333
  },
  {
    "code": "BEKDE",
    "name": "Kieldrecht",
    "country": "BE",
    "lat": 51.283333,
    "lon": 4.166667
  },
  {
    "code": "BEKEK",
    "name": "Kruibeke",
    "country": "BE",
    "lat": 51.166667,
    "lon": 4.316667
  },
  {
    "code": "BEKHN",
    "name": "Kerkhove",
    "country": "BE",
    "lat": 50.8,
    "lon": 3.5
  },
  {
    "code": "BEKJK",
    "name": "Kortrijk",
    "country": "BE",
    "lat": 50.833333,
    "lon": 3.266667
  },
  {
    "code": "BEKLE",
    "name": "Kaulille",
    "country": "BE",
    "lat": 51.183333,
    "lon": 5.516667
  },
  {
    "code": "BEKMH",
    "name": "Kampenhout",
    "country": "BE",
    "lat": 50.95,
    "lon": 4.55
  },
  {
    "code": "BEKNS",
    "name": "Knesselaere",
    "country": "BE",
    "lat": 51.133333,
    "lon": 3.416667
  },
  {
    "code": "BEKOU",
    "name": "Kallo",
    "country": "BE",
    "lat": 51.25,
    "lon": 4.283333
  },
  {
    "code": "BEKPB",
    "name": "Kapelle-op-den-Bos",
    "country": "BE",
    "lat": 51.016667,
    "lon": 4.366667
  },
  {
    "code": "BEKRN",
    "name": "Kuringen",
    "country": "BE",
    "lat": 50.95,
    "lon": 5.3
  },
  {
    "code": "BEKRO",
    "name": "Kinrooi",
    "country": "BE",
    "lat": 51.15,
    "lon": 5.75
  },
  {
    "code": "BEKSN",
    "name": "Kessenich",
    "country": "BE",
    "lat": 51.15,
    "lon": 5.816667
  },
  {
    "code": "BEKSR",
    "name": "Kluisbergen",
    "country": "BE",
    "lat": 50.783333,
    "lon": 3.516667
  },
  {
    "code": "BEKUU",
    "name": "Kuurne",
    "country": "BE",
    "lat": 50.85,
    "lon": 3.283333
  },
  {
    "code": "BEKVE",
    "name": "Klein Veerle",
    "country": "BE",
    "lat": 51.333333,
    "lon": 4.666667
  },
  {
    "code": "BEKWA",
    "name": "Kwaadmechelen",
    "country": "BE",
    "lat": 51.1,
    "lon": 5.133333
  },
  {
    "code": "BELAN",
    "name": "Lanaken",
    "country": "BE",
    "lat": 50.883333,
    "lon": 5.65
  },
  {
    "code": "BELAW",
    "name": "Lauwe",
    "country": "BE",
    "lat": 50.8,
    "lon": 3.183333
  },
  {
    "code": "BELBE",
    "name": "Lembeek",
    "country": "BE",
    "lat": 50.716667,
    "lon": 4.216667
  },
  {
    "code": "BELBS",
    "name": "Lobbes",
    "country": "BE",
    "lat": 50.35,
    "lon": 4.25
  },
  {
    "code": "BELDS",
    "name": "Landelies",
    "country": "BE",
    "lat": 50.383333,
    "lon": 4.35
  },
  {
    "code": "BELES",
    "name": "Lessines",
    "country": "BE",
    "lat": 50.716667,
    "lon": 3.833333
  },
  {
    "code": "BELEU",
    "name": "Leuven",
    "country": "BE",
    "lat": 50.883333,
    "lon": 4.7
  },
  {
    "code": "BELFE",
    "name": "Leffinge",
    "country": "BE",
    "lat": 51.166667,
    "lon": 2.883333
  },
  {
    "code": "BELGB",
    "name": "Langerbrugge",
    "country": "BE",
    "lat": 51.116667,
    "lon": 3.733333
  },
  {
    "code": "BELGG",
    "name": "Liège",
    "country": "BE",
    "lat": 50.633333,
    "lon": 5.566667
  },
  {
    "code": "BELGM",
    "name": "Landegem",
    "country": "BE",
    "lat": 51.05,
    "lon": 3.566667
  },
  {
    "code": "BELGO",
    "name": "Langerlo",
    "country": "BE",
    "lat": 50.95,
    "lon": 5.5
  },
  {
    "code": "BELHK",
    "name": "Liefkenshoek",
    "country": "BE",
    "lat": 51.016667,
    "lon": 3.883333
  },
  {
    "code": "BELIE",
    "name": "Lier",
    "country": "BE",
    "lat": 51.133333,
    "lon": 4.566667
  },
  {
    "code": "BELIL",
    "name": "Lillo",
    "country": "BE",
    "lat": 51.3,
    "lon": 4.3
  },
  {
    "code": "BELIX",
    "name": "Lixhe",
    "country": "BE",
    "lat": 50.75,
    "lon": 5.666667
  },
  {
    "code": "BELML",
    "name": "Lommel",
    "country": "BE",
    "lat": 51.233333,
    "lon": 5.3
  },
  {
    "code": "BELNK",
    "name": "Lanklaar",
    "country": "BE",
    "lat": 51.016667,
    "lon": 5.716667
  },
  {
    "code": "BELNY",
    "name": "Lanaye (Ternaaien)",
    "country": "BE",
    "lat": 50.783333,
    "lon": 5.683333
  },
  {
    "code": "BELNY",
    "name": "Ternaaien (Lanaye)",
    "country": "BE",
    "lat": 50.783333,
    "lon": 5.683333
  },
  {
    "code": "BELOK",
    "name": "Lokeren",
    "country": "BE",
    "lat": 51.1,
    "lon": 3.983333
  },
  {
    "code": "BELOT",
    "name": "Lot",
    "country": "BE",
    "lat": 50.766667,
    "lon": 4.266667
  },
  {
    "code": "BELOZ",
    "name": "Lozen",
    "country": "BE",
    "lat": 51.2,
    "lon": 5.566667
  },
  {
    "code": "BELPG",
    "name": "Leopoldsburg",
    "country": "BE",
    "lat": 51.116667,
    "lon": 5.25
  },
  {
    "code": "BELPI",
    "name": "Laplaigne",
    "country": "BE",
    "lat": 50.516667,
    "lon": 3.433333
  },
  {
    "code": "BELQA",
    "name": "Lanquesaint",
    "country": "BE",
    "lat": 50.65,
    "lon": 3.8
  },
  {
    "code": "BELRG",
    "name": "Ledeberg",
    "country": "BE",
    "lat": 51.033333,
    "lon": 3.75
  },
  {
    "code": "BELSG",
    "name": "Lissewege",
    "country": "BE",
    "lat": 51.3,
    "lon": 3.183333
  },
  {
    "code": "BELUI",
    "name": "Lustin",
    "country": "BE",
    "lat": 50.383333,
    "lon": 4.9
  },
  {
    "code": "BELUM",
    "name": "Lummen",
    "country": "BE",
    "lat": 50.983333,
    "lon": 5.2
  },
  {
    "code": "BELUZ",
    "name": "Ladeuze",
    "country": "BE",
    "lat": 50.566667,
    "lon": 3.766667
  },
  {
    "code": "BEMAN",
    "name": "Manage",
    "country": "BE",
    "lat": 50.5,
    "lon": 4.216667
  },
  {
    "code": "BEMAP",
    "name": "Marchienne-au-Pont",
    "country": "BE",
    "lat": 50.4,
    "lon": 4.383333
  },
  {
    "code": "BEMBY",
    "name": "Maubray",
    "country": "BE",
    "lat": 50.55,
    "lon": 3.5
  },
  {
    "code": "BEMEE",
    "name": "Meer",
    "country": "BE",
    "lat": 51.45,
    "lon": 4.733333
  },
  {
    "code": "BEMEG",
    "name": "Meilegem",
    "country": "BE",
    "lat": 50.9,
    "lon": 3.7
  },
  {
    "code": "BEMEH",
    "name": "Meerhout",
    "country": "BE",
    "lat": 51.133333,
    "lon": 5.083333
  },
  {
    "code": "BEMEL",
    "name": "Melle",
    "country": "BE",
    "lat": 51.0,
    "lon": 3.8
  },
  {
    "code": "BEMEN",
    "name": "Menen",
    "country": "BE",
    "lat": 50.8,
    "lon": 3.116667
  },
  {
    "code": "BEMEW",
    "name": "Moerbeke-Waas",
    "country": "BE",
    "lat": 51.166667,
    "lon": 3.933333
  },
  {
    "code": "BEMFF",
    "name": "Maffle",
    "country": "BE",
    "lat": 50.616667,
    "lon": 3.8
  },
  {
    "code": "BEMGM",
    "name": "Meigem",
    "country": "BE",
    "lat": 51.016667,
    "lon": 3.533333
  },
  {
    "code": "BEMGN",
    "name": "Moignelée",
    "country": "BE",
    "lat": 50.45,
    "lon": 4.583333
  },
  {
    "code": "BEMGS",
    "name": "Montignies-sur-Sambre",
    "country": "BE",
    "lat": 50.4,
    "lon": 4.5
  },
  {
    "code": "BEMHN",
    "name": "Massenhoven",
    "country": "BE",
    "lat": 51.2,
    "lon": 4.616667
  },
  {
    "code": "BEMLD",
    "name": "Marche-les-Dames",
    "country": "BE",
    "lat": 50.483333,
    "lon": 4.966667
  },
  {
    "code": "BEMLO",
    "name": "Mol",
    "country": "BE",
    "lat": 51.183333,
    "lon": 5.1
  },
  {
    "code": "BEMLY",
    "name": "Marly",
    "country": "BE",
    "lat": 50.883333,
    "lon": 4.383333
  },
  {
    "code": "BEMMN",
    "name": "Maasmechelen",
    "country": "BE",
    "lat": 50.816667,
    "lon": 5.666667
  },
  {
    "code": "BEMNO",
    "name": "Moen",
    "country": "BE",
    "lat": 50.766667,
    "lon": 3.4
  },
  {
    "code": "BEMQS",
    "name": "Mons",
    "country": "BE",
    "lat": 50.45,
    "lon": 3.933333
  },
  {
    "code": "BEMRB",
    "name": "Moerbrugge",
    "country": "BE",
    "lat": 51.166667,
    "lon": 3.266667
  },
  {
    "code": "BEMRD",
    "name": "Merendree",
    "country": "BE",
    "lat": 51.083333,
    "lon": 3.583333
  },
  {
    "code": "BEMRG",
    "name": "Maurage",
    "country": "BE",
    "lat": 50.45,
    "lon": 4.083333
  },
  {
    "code": "BEMRK",
    "name": "Merksem",
    "country": "BE",
    "lat": 51.25,
    "lon": 4.45
  },
  {
    "code": "BEMRL",
    "name": "Merelbeke",
    "country": "BE",
    "lat": 51.0,
    "lon": 3.75
  },
  {
    "code": "BEMRM",
    "name": "Merkem",
    "country": "BE",
    "lat": 50.95,
    "lon": 2.85
  },
  {
    "code": "BEMRO",
    "name": "Mornimont",
    "country": "BE",
    "lat": 50.45,
    "lon": 4.7
  },
  {
    "code": "BEMSI",
    "name": "Monsin",
    "country": "BE",
    "lat": 50.666667,
    "lon": 5.633333
  },
  {
    "code": "BEMSJ",
    "name": "Molenbeek-Saint-Jean (Sint-Jans-Molenbeek)/Brussel (Bruxelles)",
    "country": "BE",
    "lat": 50.85,
    "lon": 4.316667
  },
  {
    "code": "BEMSJ",
    "name": "Sint-Jans-Molenbeek (Molenbeek-Saint-Jean)/Brussel (Bruxelles)",
    "country": "BE",
    "lat": 50.85,
    "lon": 4.316667
  },
  {
    "code": "BEMSK",
    "name": "Maaseik",
    "country": "BE",
    "lat": 51.1,
    "lon": 5.8
  },
  {
    "code": "BEMSP",
    "name": "Mespelare",
    "country": "BE",
    "lat": 51.0,
    "lon": 4.066667
  },
  {
    "code": "BEMSR",
    "name": "Maisières",
    "country": "BE",
    "lat": 50.483333,
    "lon": 3.95
  },
  {
    "code": "BEMSS",
    "name": "Monceau-sur-Sambre",
    "country": "BE",
    "lat": 50.416667,
    "lon": 4.366667
  },
  {
    "code": "BEMUI",
    "name": "Muizen",
    "country": "BE",
    "lat": 51.016667,
    "lon": 4.516667
  },
  {
    "code": "BEMZK",
    "name": "Moerzeke",
    "country": "BE",
    "lat": 51.066667,
    "lon": 4.15
  },
  {
    "code": "BENAM",
    "name": "Namur",
    "country": "BE",
    "lat": 50.466667,
    "lon": 4.866667
  },
  {
    "code": "BENBA",
    "name": "Nimy",
    "country": "BE",
    "lat": 50.466667,
    "lon": 3.95
  },
  {
    "code": "BENFE",
    "name": "Neffe",
    "country": "BE",
    "lat": 50.233333,
    "lon": 4.916667
  },
  {
    "code": "BENHA",
    "name": "Neerharen",
    "country": "BE",
    "lat": 50.916667,
    "lon": 5.683333
  },
  {
    "code": "BENHY",
    "name": "Neuville-sous-Huy",
    "country": "BE",
    "lat": 50.533333,
    "lon": 5.283333
  },
  {
    "code": "BENIE",
    "name": "Nieuwpoort",
    "country": "BE",
    "lat": 51.133333,
    "lon": 2.75
  },
  {
    "code": "BENIL",
    "name": "Niel",
    "country": "BE",
    "lat": 51.116667,
    "lon": 4.333333
  },
  {
    "code": "BENMC",
    "name": "Namêche",
    "country": "BE",
    "lat": 50.466667,
    "lon": 5.0
  },
  {
    "code": "BENNV",
    "name": "Ninove",
    "country": "BE",
    "lat": 50.833333,
    "lon": 4.016667
  },
  {
    "code": "BENRP",
    "name": "Neerpelt",
    "country": "BE",
    "lat": 51.216667,
    "lon": 5.416667
  },
  {
    "code": "BENRT",
    "name": "Neeroeteren",
    "country": "BE",
    "lat": 51.083333,
    "lon": 5.7
  },
  {
    "code": "BENRY",
    "name": "Renory",
    "country": "BE",
    "lat": 50.6,
    "lon": 5.55
  },
  {
    "code": "BENVH",
    "name": "Neder-Over-Heembeek",
    "country": "BE",
    "lat": 50.9,
    "lon": 4.383333
  },
  {
    "code": "BENVL",
    "name": "Nevele",
    "country": "BE",
    "lat": 51.033333,
    "lon": 3.55
  },
  {
    "code": "BENVN",
    "name": "Noeveren",
    "country": "BE",
    "lat": 51.1,
    "lon": 4.35
  },
  {
    "code": "BENYL",
    "name": "Nijlen",
    "country": "BE",
    "lat": 51.166667,
    "lon": 4.65
  },
  {
    "code": "BEOBG",
    "name": "Oudenburg",
    "country": "BE",
    "lat": 51.183333,
    "lon": 3.0
  },
  {
    "code": "BEOBR",
    "name": "Obourg",
    "country": "BE",
    "lat": 50.466667,
    "lon": 4.0
  },
  {
    "code": "BEOBT",
    "name": "Ombret-Rawsa",
    "country": "BE",
    "lat": 50.55,
    "lon": 5.333333
  },
  {
    "code": "BEODE",
    "name": "Auderghem (Oudergem)/Brussel (Bruxelles)",
    "country": "BE",
    "lat": 50.816667,
    "lon": 4.433333
  },
  {
    "code": "BEODE",
    "name": "Oudergem (Auderghem)/Brussel (Bruxelles)",
    "country": "BE",
    "lat": 50.816667,
    "lon": 4.433333
  },
  {
    "code": "BEOEL",
    "name": "Oelegem",
    "country": "BE",
    "lat": 51.216667,
    "lon": 4.583333
  },
  {
    "code": "BEOEV",
    "name": "Oevel",
    "country": "BE",
    "lat": 51.133333,
    "lon": 4.883333
  },
  {
    "code": "BEOGS",
    "name": "Ollignies",
    "country": "BE",
    "lat": 50.683333,
    "lon": 3.85
  },
  {
    "code": "BEOHN",
    "name": "Ophoven",
    "country": "BE",
    "lat": 51.116667,
    "lon": 5.8
  },
  {
    "code": "BEOKG",
    "name": "Okegem",
    "country": "BE",
    "lat": 50.85,
    "lon": 4.05
  },
  {
    "code": "BEOKP",
    "name": "Oostkamp",
    "country": "BE",
    "lat": 51.15,
    "lon": 3.233333
  },
  {
    "code": "BEOLE",
    "name": "Overboelare",
    "country": "BE",
    "lat": 50.75,
    "lon": 3.85
  },
  {
    "code": "BEOLN",
    "name": "Olen",
    "country": "BE",
    "lat": 51.15,
    "lon": 4.85
  },
  {
    "code": "BEOOG",
    "name": "Ooigem",
    "country": "BE",
    "lat": 50.883333,
    "lon": 3.333333
  },
  {
    "code": "BEOPI",
    "name": "Opitter",
    "country": "BE",
    "lat": 51.116667,
    "lon": 5.65
  },
  {
    "code": "BEOPY",
    "name": "Oupeye",
    "country": "BE",
    "lat": 50.7,
    "lon": 5.65
  },