[
  {
    "code": "ZA2WC",
    "name": "Klipheuwel",
    "country": "ZA",
    "lat": -33.7,
    "lon": 18.7
  },
  {
    "code": "ZA3WC",
    "name": "Goudiniweg",
    "country": "ZA",
    "lat": -34.6,
    "lon": 19.316667
  },
  {
    "code": "ZA7WC",
    "name": "Riviersonderend",
    "country": "ZA",
    "lat": -34.15,
    "lon": 19.9
  },
  {
    "code": "ZA8GT",
    "name": "Bottelary",
    "country": "ZA",
    "lat": -33.133333,
    "lon": 18.1
  },
  {
    "code": "ZACPT",
    "name": "Cape Town",
    "country": "ZA",
    "lat": -33.916667,
    "lon": 18.416667
  },
  {
    "code": "ZACTP",
    "name": "Eastern Cape",
    "country": "ZA",
    "lat": -32.283333,
    "lon": 26.416667
  },
  {
    "code": "ZADRU",
    "name": "De Rust",
    "country": "ZA",
    "lat": -33.483333,
    "lon": 22.533333
  },
  {
    "code": "ZADUR",
    "name": "Durban",
    "country": "ZA",
    "lat": -29.85,
    "lon": 31.016667
  },
  {
    "code": "ZADWK",
    "name": "De Waterkant",
    "country": "ZA",
    "lat": -33.9,
    "lon": 18.416667
  },
  {
    "code": "ZAEBY",
    "name": "Elands Bay",
    "country": "ZA",
    "lat": -32.3,
    "lon": 18.316667
  },
  {
    "code": "ZAGSF",
    "name": "Garsfontein",
    "country": "ZA",
    "lat": -25.783333,
    "lon": 28.283333
  },
  {
    "code": "ZAIVI",
    "name": "Island View",
    "country": "ZA",
    "lat": -29.883333,
    "lon": 31.033333
  },
  {
    "code": "ZAJOH",
    "name": "Port Saint John's",
    "country": "ZA",
    "lat": -31.633333,
    "lon": 29.533333
  },
  {
    "code": "ZAJTP",
    "name": "Jet Park",
    "country": "ZA",
    "lat": -26.166667,
    "lon": 28.233333
  },
  {
    "code": "ZAKKN",
    "name": "Komkans",
    "country": "ZA",
    "lat": -31.216667,
    "lon": 18.05
  },
  {
    "code": "TWBAL",
    "name": "Bali",
    "country": "TW",
    "lat": 25.15,
    "lon": 121.4
  },
  {
    "code": "TWBDA",
    "name": "Budai",
    "country": "TW",
    "lat": 23.366667,
    "lon": 120.1
  },
  {
    "code": "TWHUK",
    "name": "Hukou",
    "country": "TW",
    "lat": 24.9,
    "lon": 121.05
  },
  {
    "code": "TWLGM",
    "name": "Lung-men",
    "country": "TW",
    "lat": 23.566667,
    "lon": 119.666667
  },
  {
    "code": "TWMAL",
    "name": "Mai-Liai",
    "country": "TW",
    "lat": 23.75,
    "lon": 120.25
  },
  {
    "code": "TWMLI",
    "name": "Mai-liao",
    "country": "TW",
    "lat": 23.1,
    "lon": 120.133333
  },
  {
    "code": "TWNAN",
    "name": "Nantou",
    "country": "TW",
    "lat": 23.9,
    "lon": 120.683333
  },
  {
    "code": "TWSHL",
    "name": "Sha-lun",
    "country": "TW",
    "lat": 25.1,
    "lon": 121.216667
  },
  {
    "code": "TWTPE",
    "name": "Taipei",
    "country": "TW",
    "lat": 25.033333,
    "lon": 121.516667
  },
  {
    "code": "TWWTU",
    "name": "Wu-tu",
    "country": "TW",
    "lat": 25.083333,
    "lon": 121.666667
  },
  {
    "code": "BRAAR",
    "name": "Acará",
    "country": "BR",
    "lat": -1.95,
    "lon": -48.2
  },
  {
    "code": "BRABZ",
    "name": "Armação dos Búzios",
    "country": "BR",
    "lat": -22.75,
    "lon": -41.883333
  },
  {
    "code": "BRACT",
    "name": "Alcântara",
    "country": "BR",
    "lat": -2.4,
    "lon": -44.416667
  },
  {
    "code": "BRACX",
    "name": "Açu Pt / São João da Barra",
    "country": "BR",
    "lat": -21.816667,
    "lon": -41.016667
  },
  {
    "code": "BRADR",
    "name": "Angra dos Reis",
    "country": "BR",
    "lat": -23.0,
    "lon": -44.316667
  },
  {
    "code": "BRAFU",
    "name": "Afuá",
    "country": "BR",
    "lat": -0.15,
    "lon": -50.383333
  },
  {
    "code": "BRAJU",
    "name": "Aracaju",
    "country": "BR",
    "lat": -10.9,
    "lon": -37.033333
  },
  {
    "code": "BRALT",
    "name": "Alenquer",
    "country": "BR",
    "lat": -1.95,
    "lon": -54.733333
  },
  {
    "code": "BRAMM",
    "name": "Almeirim",
    "country": "BR",
    "lat": -1.516667,
    "lon": -52.566667
  },
  {
    "code": "BRANA",
    "name": "Ananindeua",
    "country": "BR",
    "lat": -1.366667,
    "lon": -48.366667
  },
  {
    "code": "BRANH",
    "name": "Anhembi",
    "country": "BR",
    "lat": -22.783333,
    "lon": -48.116667
  },
  {
    "code": "BRANS",
    "name": "Araguatins",
    "country": "BR",
    "lat": -5.65,
    "lon": -48.116667
  },
  {
    "code": "BRANT",
    "name": "Antonina",
    "country": "BR",
    "lat": -25.416667,
    "lon": -48.7
  },
  {
    "code": "BRARB",
    "name": "Aratu Pt / Candeias",
    "country": "BR",
    "lat": -12.783333,
    "lon": -38.5
  },
  {
    "code": "BRARE",
    "name": "Areia Branca",
    "country": "BR",
    "lat": -4.95,
    "lon": -37.116667
  },
  {
    "code": "EGADA",
    "name": "Al Adabiyah",
    "country": "EG",
    "lat": 29.866667,
    "lon": 32.466667
  },
  {
    "code": "EGAGN",
    "name": "Abu Ghosoun",
    "country": "EG",
    "lat": 24.45,
    "lon": 35.2
  },
  {
    "code": "EGALY",
    "name": "El Iskandariya (Alexandria)",
    "country": "EG",
    "lat": 31.183333,
    "lon": 29.916667
  },
  {
    "code": "EGAQU",
    "name": "Al Qusayr",
    "country": "EG",
    "lat": 26.1,
    "lon": 34.283333
  },
  {
    "code": "EGARY",
    "name": "Al Amriyah",
    "country": "EG",
    "lat": 31.583333,
    "lon": 30.966667
  },
  {
    "code": "EGAZA",
    "name": "Abu Zenimah",
    "country": "EG",
    "lat": 29.05,
    "lon": 33.1
  },
  {
    "code": "EGBGB",
    "name": "Atakka Dry Port",
    "country": "EG",
    "lat": 32.1,
    "lon": 33.0
  },
  {
    "code": "EGDAM",
    "name": "Dumyat (Damietta)",
    "country": "EG",
    "lat": 31.416667,
    "lon": 31.816667
  },
  {
    "code": "EGDOM",
    "name": "Dome Marina",
    "country": "EG",
    "lat": 29.433333,
    "lon": 32.483333
  },
  {
    "code": "EGEPP",
    "name": "Marsa Egyptian Propylene & Polypropylene",
    "country": "EG",
    "lat": 31.3,
    "lon": 32.15
  },
  {
    "code": "EGGAL",
    "name": "Galala Marina",
    "country": "EG",
    "lat": 29.466667,
    "lon": 32.433333
  },
  {
    "code": "EGGLB",
    "name": "Port Ghalib",
    "country": "EG",
    "lat": 25.533333,
    "lon": 34.633333
  },
  {
    "code": "EGGUA",
    "name": "El-Guna (El Gouna)",
    "country": "EG",
    "lat": 27.383333,
    "lon": 33.666667
  },
  {
    "code": "EGIKU",
    "name": "Idku",
    "country": "EG",
    "lat": 31.3,
    "lon": 30.3
  },
  {
    "code": "EGMEA",
    "name": "Porto Marina El Alamein",
    "country": "EG",
    "lat": 30.816667,
    "lon": 28.983333
  },
  {
    "code": "IDAGR",
    "name": "Anggrek",
    "country": "ID",
    "lat": 0.85,
    "lon": 122.783333
  },
  {
    "code": "IDAKE",
    "name": "Akeselaka",
    "country": "ID",
    "lat": 1.05,
    "lon": 127.966667
  },
  {
    "code": "IDANG",
    "name": "Angar",
    "country": "ID",
    "lat": -3.65,
    "lon": 130.833333
  },
  {
    "code": "IDANO",
    "name": "Anoa Natuna Pt.",
    "country": "ID",
    "lat": 5.233333,
    "lon": 105.6
  },
  {
    "code": "IDANR",
    "name": "Anyer Kidul",
    "country": "ID",
    "lat": -6.066667,
    "lon": 105.883333
  },
  {
    "code": "IDAPN",
    "name": "Ampana",
    "country": "ID",
    "lat": -0.866667,
    "lon": 121.583333
  },
  {
    "code": "IDASI",
    "name": "Asike",
    "country": "ID",
    "lat": -6.65,
    "lon": 140.416667
  },
  {
    "code": "IDBAL",
    "name": "Balongan Terminal",
    "country": "ID",
    "lat": -6.383333,
    "lon": 108.4
  },
  {
    "code": "IDBAM",
    "name": "Batuampar",
    "country": "ID",
    "lat": -0.966667,
    "lon": 102.733333
  },
  {
    "code": "IDBAP",
    "name": "Batu Ampar",
    "country": "ID",
    "lat": -0.75,
    "lon": 109.533333
  },
  {
    "code": "IDBEN",
    "name": "Benete",
    "country": "ID",
    "lat": -8.866667,
    "lon": 116.716667
  },
  {
    "code": "IDBET",
    "name": "Belida Terminal",
    "country": "ID",
    "lat": 4.133333,
    "lon": 105.133333
  },
  {
    "code": "IDBGD",
    "name": "Bagendang",
    "country": "ID",
    "lat": -2.733333,
    "lon": 112.55
  },
  {
    "code": "IDBIR",
    "name": "Biringkassi",
    "country": "ID",
    "lat": -4.816667,
    "lon": 119.483333
  },
  {
    "code": "IDBLH",
    "name": "Balohan",
    "country": "ID",
    "lat": 5.816667,
    "lon": 95.333333
  },
  {
    "code": "MYABU",
    "name": "Abu",
    "country": "MY",
    "lat": 6.116667,
    "lon": 105.283333
  },
  {
    "code": "MYANG",
    "name": "Angsi",
    "country": "MY",
    "lat": 5.083333,
    "lon": 104.683333
  },
  {
    "code": "MYASQ",
    "name": "Teronoh",
    "country": "MY",
    "lat": 4.416667,
    "lon": 100.983333
  },
  {
    "code": "MYBAK",
    "name": "Batang Kali",
    "country": "MY",
    "lat": 3.466667,
    "lon": 101.633333
  },
  {
    "code": "MYBBA",
    "name": "Batu Batu, Sabah",
    "country": "MY",
    "lat": 5.033333,
    "lon": 115.95
  },
  {
    "code": "MYBDV",
    "name": "Bandau, Sabah",
    "country": "MY",
    "lat": 6.5,
    "lon": 116.766667
  },
  {
    "code": "MYBEA",
    "name": "Beaufort",
    "country": "MY",
    "lat": 5.333333,
    "lon": 115.75
  },
  {
    "code": "MYBEL",
    "name": "Beluran, Sabah",
    "country": "MY",
    "lat": 5.883333,
    "lon": 117.55
  },
  {
    "code": "MYBGR",
    "name": "Bunga Raya",
    "country": "MY",
    "lat": 6.95,
    "lon": 104.1
  },
  {
    "code": "MYBGU",
    "name": "Bangau",
    "country": "MY",
    "lat": 6.95,
    "lon": 116.7
  },
  {
    "code": "MYBKI",
    "name": "Kota Kinabalu, Sabah",
    "country": "MY",
    "lat": 5.966667,
    "lon": 116.066667
  },
  {
    "code": "MYBRU",
    "name": "Pulau Bruit",
    "country": "MY",
    "lat": 2.583333,
    "lon": 111.333333
  },
  {
    "code": "MYBST",
    "name": "Kuala Besut",
    "country": "MY",
    "lat": 5.833333,
    "lon": 102.566667
  },
  {
    "code": "MYBTK",
    "name": "Bandar Tenggara",
    "country": "MY",
    "lat": 1.866667,
    "lon": 103.616667
  },
  {
    "code": "MYBTM",
    "name": "Batu Maung",
    "country": "MY",
    "lat": 5.283333,
    "lon": 100.283333
  },
  {
    "code": "AEABU",
    "name": "Abu al Bukhoosh",
    "country": "AE",
    "lat": 25.483333,
    "lon": 53.133333
  },
  {
    "code": "AEAJP",
    "name": "Al Jeer Port",
    "country": "AE",
    "lat": 26.033333,
    "lon": 56.05
  },
  {
    "code": "AEAMF",
    "name": "Musaffah",
    "country": "AE",
    "lat": 24.383333,
    "lon": 54.483333
  },
  {
    "code": "AEAMU",
    "name": "Abu Musa",
    "country": "AE",
    "lat": 25.866667,
    "lon": 55.016667
  },
  {
    "code": "AEARP",
    "name": "Ahmed Bin Rashid Port",
    "country": "AE",
    "lat": 25.533333,
    "lon": 55.55
  },
  {
    "code": "AEAUH",
    "name": "Abu Dhabi",
    "country": "AE",
    "lat": 24.466667,
    "lon": 54.366667
  },
  {
    "code": "AEDBP",
    "name": "Dibba",
    "country": "AE",
    "lat": 25.616667,
    "lon": 56.266667
  },
  {
    "code": "AEDXB",
    "name": "Dubai",
    "country": "AE",
    "lat": 25.25,
    "lon": 55.266667
  },
  {
    "code": "AEEND",
    "name": "Esnnad",
    "country": "AE",
    "lat": 24.316667,
    "lon": 54.45
  },
  {
    "code": "AEFJR",
    "name": "Al Fujayrah",
    "country": "AE",
    "lat": 25.116667,
    "lon": 56.333333
  },
  {
    "code": "AEFRP",
    "name": "Free Port",
    "country": "AE",
    "lat": 25.25,
    "lon": 55.25
  },
  {
    "code": "AEHSN",
    "name": "Hassyan",
    "country": "AE",
    "lat": 24.9,
    "lon": 54.9
  },
  {
    "code": "AEHTL",
    "name": "Hulaylah Terminal",
    "country": "AE",
    "lat": 25.983333,
    "lon": 55.933333
  },
  {
    "code": "AEHZP",
    "name": "Hamriya Free Zone Port",
    "country": "AE",
    "lat": 25.3,
    "lon": 55.316667
  },
  {
    "code": "AEJAZ",
    "name": "Al Jazeera Port",
    "country": "AE",
    "lat": 25.716667,
    "lon": 55.8
  },
  {
    "code": "BE7PD",
    "name": "Athis",
    "country": "BE",
    "lat": 50.366667,
    "lon": 3.766667
  },
  {
    "code": "BE9IR",
    "name": "Eben-Emael",
    "country": "BE",
    "lat": 50.8,
    "lon": 5.666667
  },
  {
    "code": "BEAAB",
    "name": "Aalst",
    "country": "BE",
    "lat": 50.933333,
    "lon": 4.033333
  },
  {
    "code": "BEAAL",
    "name": "Aalter",
    "country": "BE",
    "lat": 51.083333,
    "lon": 3.45
  },
  {
    "code": "BEADK",
    "name": "Adinkerke",
    "country": "BE",
    "lat": 51.066667,
    "lon": 2.6
  },
  {
    "code": "BEAEJ",
    "name": "Arendonk",
    "country": "BE",
    "lat": 51.316667,
    "lon": 5.083333
  },
  {
    "code": "BEAFN",
    "name": "Afsnee",
    "country": "BE",
    "lat": 51.033333,
    "lon": 3.666667
  },
  {
    "code": "BEAGT",
    "name": "Argenteau",
    "country": "BE",
    "lat": 50.7,
    "lon": 5.7
  },
  {
    "code": "BEAHE",
    "name": "Antheit",
    "country": "BE",
    "lat": 50.55,
    "lon": 5.216667
  },
  {
    "code": "BEAMY",
    "name": "Amay",
    "country": "BE",
    "lat": 50.55,
    "lon": 5.316667
  },
  {
    "code": "BEANB",
    "name": "Angleur",
    "country": "BE",
    "lat": 50.616667,
    "lon": 5.583333
  },
  {
    "code": "BEAND",
    "name": "Andenne",
    "country": "BE",
    "lat": 50.483333,
    "lon": 5.1
  },
  {
    "code": "BEANH",
    "name": "Anhée",
    "country": "BE",
    "lat": 50.316667,
    "lon": 4.883333
  },
  {
    "code": "BEANR",
    "name": "Antwerpen",
    "country": "BE",
    "lat": 51.216667,
    "lon": 4.416667
  },
  {
    "code": "BEAPL",
    "name": "Appels",
    "country": "BE",
    "lat": 51.033333,
    "lon": 4.066667
  },
  {
    "code": "PHABU",
    "name": "Abulug",
    "country": "PH",
    "lat": 18.433333,
    "lon": 121.45
  },
  {
    "code": "PHADL",
    "name": "Adlay/Bislig",
    "country": "PH",
    "lat": 9.4,
    "lon": 125.9
  },
  {
    "code": "PHAJU",
    "name": "Ajuy",
    "country": "PH",
    "lat": 11.166667,
    "lon": 123.033333
  },
  {
    "code": "PHALB",
    "name": "Albuera",
    "country": "PH",
    "lat": 10.966667,
    "lon": 124.633333
  },
  {
    "code": "PHALC",
    "name": "Alcoy",
    "country": "PH",
    "lat": 9.683333,
    "lon": 123.5
  },
  {
    "code": "PHAMU",
    "name": "Amunitan/Aparri",
    "country": "PH",
    "lat": 18.316667,
    "lon": 122.05
  },
  {
    "code": "PHAQE",
    "name": "Hamtic",
    "country": "PH",
    "lat": 10.7,
    "lon": 121.966667
  },
  {
    "code": "PHARA",
    "name": "Aras Asan/Bislig",
    "country": "PH",
    "lat": 8.883333,
    "lon": 126.3
  },
  {
    "code": "PHAST",
    "name": "Astorga",
    "country": "PH",
    "lat": 6.883333,
    "lon": 125.45
  },
  {
    "code": "PHATI",
    "name": "Atimonan/Siain",
    "country": "PH",
    "lat": 13.983333,
    "lon": 121.9
  },
  {
    "code": "PHAYG",
    "name": "Ayungon",
    "country": "PH",
    "lat": 9.85,
    "lon": 123.133333
  },
  {
    "code": "PHBAC",
    "name": "Bacong",
    "country": "PH",
    "lat": 9.233333,
    "lon": 123.3
  },
  {
    "code": "PHBAT",
    "name": "Batonbaton",
    "country": "PH",
    "lat": 9.183333,
    "lon": 118.35
  },
  {
    "code": "PHBAU",
    "name": "Bauan/Batangas",
    "country": "PH",
    "lat": 13.8,
    "lon": 121.0
  },
  {
    "code": "PHBCT",
    "name": "Isabela, Basilan",
    "country": "PH",
    "lat": 6.7,
    "lon": 121.966667
  },
  {
    "code": "VNBAN",
    "name": "Cam Lâm",
    "country": "VN",
    "lat": 11.9,
    "lon": 109.15
  },
  {
    "code": "VNBCD",
    "name": "Ben Dam Con Dao Terminals",
    "country": "VN",
    "lat": 8.65,
    "lon": 106.55
  },
  {
    "code": "VNBDG",
    "name": "Binh Duong Terminal",
    "country": "VN",
    "lat": 10.9,
    "lon": 106.833333
  },
  {
    "code": "VNBHO",
    "name": "Bach Ho",
    "country": "VN",
    "lat": 9.833333,
    "lon": 108.0
  },
  {
    "code": "VNBLG",
    "name": "Binh Long Port",
    "country": "VN",
    "lat": 10.566667,
    "lon": 105.25
  },
  {
    "code": "VNBMH",
    "name": "Binh Minh",
    "country": "VN",
    "lat": 10.333333,
    "lon": 105.816667
  },
  {
    "code": "VNBNG",
    "name": "Bèn Nghè",
    "country": "VN",
    "lat": 10.75,
    "lon": 106.733333
  },
  {
    "code": "VNBNO",
    "name": "Ba Ngoi",
    "country": "VN",
    "lat": 11.9,
    "lon": 109.15
  },
  {
    "code": "VNBSE",
    "name": "Bông Sen",
    "country": "VN",
    "lat": 10.683333,
    "lon": 106.766667
  },
  {
    "code": "VNC8Q",
    "name": "Chu Lai",
    "country": "VN",
    "lat": 15.466667,
    "lon": 108.616667
  },
  {
    "code": "VNCCA",
    "name": "Cua Cam Terminal",
    "country": "VN",
    "lat": 20.866667,
    "lon": 106.683333
  },
  {
    "code": "VNCCU",
    "name": "Cai Cui Port",
    "country": "VN",
    "lat": 9.983333,
    "lon": 106.5
  },
  {
    "code": "VNCLI",
    "name": "Cát Lái",
    "country": "VN",
    "lat": 10.766667,
    "lon": 106.783333
  },
  {
    "code": "VNCLO",
    "name": "Culao",
    "country": "VN",
    "lat": 18.8,
    "lon": 105.7
  },
  {
    "code": "VNCMT",
    "name": "Cai Mep International Terminal",
    "country": "VN",
    "lat": 10.516667,
    "lon": 107.0
  },
  {
    "code": "NLA2Z",
    "name": "Oud-Alblas",
    "country": "NL",
    "lat": 51.85,
    "lon": 4.7
  },
  {
    "code": "NLAAL",
    "name": "Aalst",
    "country": "NL",
    "lat": 51.95,
    "lon": 5.533333
  },
  {
    "code": "NLAER",
    "name": "Almere",
    "country": "NL",
    "lat": 52.366667,
    "lon": 5.216667
  },
  {
    "code": "NLAHO",
    "name": "Achthoven",
    "country": "NL",
    "lat": 52.05,
    "lon": 4.983333
  },
  {
    "code": "NLALK",
    "name": "Alkmaar",
    "country": "NL",
    "lat": 52.633333,
    "lon": 4.75
  },
  {
    "code": "NLALM",
    "name": "Almelo",
    "country": "NL",
    "lat": 52.35,
    "lon": 6.666667
  },
  {
    "code": "NLAMB",
    "name": "Aalsmeerderbrug",
    "country": "NL",
    "lat": 52.266667,
    "lon": 4.75
  },
  {
    "code": "NLAME",
    "name": "Amersfoort",
    "country": "NL",
    "lat": 52.15,
    "lon": 5.383333
  },
  {
    "code": "NLAMR",
    "name": "Amerongen",
    "country": "NL",
    "lat": 52.0,
    "lon": 5.466667
  },
  {
    "code": "NLAMS",
    "name": "Amsterdam",
    "country": "NL",
    "lat": 52.4,
    "lon": 4.816667
  },
  {
    "code": "NLANC",
    "name": "Sint Pancras",
    "country": "NL",
    "lat": 52.666667,
    "lon": 4.783333
  },
  {
    "code": "NLANK",
    "name": "Everingen",
    "country": "NL",
    "lat": 51.4,
    "lon": 3.75
  },
  {
    "code": "NLANP",
    "name": "Anna Paulowna",
    "country": "NL",
    "lat": 52.866667,
    "lon": 4.866667
  },
  {
    "code": "NLAPN",
    "name": "Alphen aan den Rijn",
    "country": "NL",
    "lat": 52.133333,
    "lon": 4.666667
  },
  {
    "code": "NLAPP",
    "name": "Appingedam",
    "country": "NL",
    "lat": 53.316667,
    "lon": 6.866667
  },
  {
    "code": "PAACO",
    "name": "Ancon",
    "country": "PA",
    "lat": 8.966667,
    "lon": -79.55
  },
  {
    "code": "PABAY",
    "name": "Bayano",
    "country": "PA",
    "lat": 7.633333,
    "lon": -80.383333
  },
  {
    "code": "PABCC",
    "name": "Boca Chica",
    "country": "PA",
    "lat": 8.216667,
    "lon": -82.216667
  },
  {
    "code": "PABOC",
    "name": "Bocas del Toro",
    "country": "PA",
    "lat": 9.333333,
    "lon": -82.233333
  },
  {
    "code": "PACHG",
    "name": "Chiriquí Grande",
    "country": "PA",
    "lat": 8.95,
    "lon": -82.116667
  },
  {
    "code": "PACTB",
    "name": "Cristóbal",
    "country": "PA",
    "lat": 9.35,
    "lon": -79.9
  },
  {
    "code": "PACTD",
    "name": "Chitre",
    "country": "PA",
    "lat": 7.966667,
    "lon": -80.433333
  },
  {
    "code": "PACZZ",
    "name": "Cañazas",
    "country": "PA",
    "lat": 8.133333,
    "lon": -80.7
  },
  {
    "code": "PAG8L",
    "name": "Gualaca",
    "country": "PA",
    "lat": 8.533333,
    "lon": -82.3
  },
  {
    "code": "PAGDE",
    "name": "Río Grande",
    "country": "PA",
    "lat": 7.716667,
    "lon": -81.35
  },
  {
    "code": "PAHER",
    "name": "Herrera",
    "country": "PA",
    "lat": 7.833333,
    "lon": -80.666667
  },
  {
    "code": "PAMEL",
    "name": "Melones",
    "country": "PA",
    "lat": 8.8,
    "lon": -79.6
  },
  {
    "code": "PAONX",
    "name": "Colón",
    "country": "PA",
    "lat": 9.35,
    "lon": -79.866667
  },
  {
    "code": "PAPBE",
    "name": "Portobelo",
    "country": "PA",
    "lat": 9.55,
    "lon": -79.65
  },
  {
    "code": "PAPBM",
    "name": "Bahía Las Minas",
    "country": "PA",
    "lat": 9.4,
    "lon": -79.833333
  },
  {
    "code": "HK9YM",
    "name": "Yau Ma Tei",
    "country": "HK",
    "lat": 22.316667,
    "lon": 114.166667
  },
  {
    "code": "HKABD",
    "name": "Aberdeen",
    "country": "HK",
    "lat": 22.25,
    "lon": 114.15
  },
  {
    "code": "HKCWB",
    "name": "Causeway Bay",
    "country": "HK",
    "lat": 22.283333,
    "lon": 114.183333
  },
  {
    "code": "HKHKC",
    "name": "Ha Kwai Chung",
    "country": "HK",
    "lat": 22.366667,
    "lon": 114.116667
  },
  {
    "code": "HKHKG",
    "name": "Hong Kong",
    "country": "HK",
    "lat": 22.316667,
    "lon": 114.166667
  },
  {
    "code": "HKKWN",
    "name": "Kowloon",
    "country": "HK",
    "lat": 22.3,
    "lon": 114.166667
  },
  {
    "code": "HKTST",
    "name": "Tsim Sha Tsui",
    "country": "HK",
    "lat": 22.3,
    "lon": 114.166667
  },
  {
    "code": "HKWNI",
    "name": "Wan Chai",
    "country": "HK",
    "lat": 22.283333,
    "lon": 114.166667
  },
  {
    "code": "CAAAB",
    "name": "Lac La Biche",
    "country": "CA",
    "lat": 54.766667,
    "lon": -111.95
  },
  {
    "code": "CAABL",
    "name": "Amberly",
    "country": "CA",
    "lat": 44.05,
    "lon": -81.716667
  },
  {
    "code": "CAABR",
    "name": "Rocky View County",
    "country": "CA",
    "lat": 51.183333,
    "lon": -113.933333
  },
  {
    "code": "CAAGU",
    "name": "Aguathuna",
    "country": "CA",
    "lat": 48.55,
    "lon": -58.766667
  },
  {
    "code": "CAALK",
    "name": "Adlavik",
    "country": "CA",
    "lat": 54.916667,
    "lon": -58.916667
  },
  {
    "code": "CAALO",
    "name": "L'Anse-au-Loup",
    "country": "CA",
    "lat": 51.516667,
    "lon": -56.833333
  },
  {
    "code": "CAALV",
    "name": "Atholville",
    "country": "CA",
    "lat": 47.983333,
    "lon": -66.716667
  },
  {
    "code": "CAANZ",
    "name": "Anzac",
    "country": "CA",
    "lat": 56.433333,
    "lon": -111.033333
  },
  {
    "code": "CAARB",
    "name": "Arctic Bay",
    "country": "CA",
    "lat": 73.033333,
    "lon": -85.166667
  },
  {
    "code": "CAARC",
    "name": "Arnold's Cove",
    "country": "CA",
    "lat": 47.766667,
    "lon": -53.983333
  },
  {
    "code": "CAARI",
    "name": "Arichat",
    "country": "CA",
    "lat": 45.516667,
    "lon": -61.016667
  },
  {
    "code": "CAASQ",
    "name": "Asquith",
    "country": "CA",
    "lat": 52.116667,
    "lon": -107.216667
  },
  {
    "code": "CAAVO",
    "name": "Avondale",
    "country": "CA",
    "lat": 47.416667,
    "lon": -53.2
  },
  {
    "code": "CAAVP",
    "name": "Avonport",
    "country": "CA",
    "lat": 45.1,
    "lon": -64.25
  },
  {
    "code": "CABAA",
    "name": "Bala",
    "country": "CA",
    "lat": 45.0,
    "lon": -79.6
  },
  {
    "code": "US2BY",
    "name": "Ballston Lake",
    "country": "US",
    "lat": 42.9,
    "lon": -73.866667
  },
  {
    "code": "US2OG",
    "name": "South Ogden",
    "country": "US",
    "lat": 41.183333,
    "lon": -111.966667
  },
  {
    "code": "US2PA",
    "name": "Clearville",
    "country": "US",
    "lat": 39.916667,
    "lon": -78.383333
  },
  {
    "code": "US2SI",
    "name": "Sinton",
    "country": "US",
    "lat": 28.033333,
    "lon": -97.5
  },
  {
    "code": "US2TO",
    "name": "Clifford Township",
    "country": "US",
    "lat": 41.666667,
    "lon": -75.55
  },
  {
    "code": "US2TT",
    "name": "Cottrellville",
    "country": "US",
    "lat": 42.683333,
    "lon": -82.533333
  },
  {
    "code": "US3BR",
    "name": "Berry Creek",
    "country": "US",
    "lat": 39.633333,
    "lon": -121.4
  },
  {
    "code": "US3DC",
    "name": "Westwood",
    "country": "US",
    "lat": 34.05,
    "lon": -118.416667
  },
  {
    "code": "US3DU",
    "name": "Victor",
    "country": "US",
    "lat": 38.133333,
    "lon": -121.2
  },
  {
    "code": "US3DV",
    "name": "Ulupalakua",
    "country": "US",
    "lat": 20.65,
    "lon": -156.383333
  },
  {
    "code": "US3OL",
    "name": "Wellfleet",
    "country": "US",
    "lat": 41.933333,
    "lon": -70.033333
  },
  {
    "code": "US3SD",
    "name": "Mabscott",
    "country": "US",
    "lat": 37.766667,
    "lon": -81.2
  },
  {
    "code": "US3TR",
    "name": "Vineburg",
    "country": "US",
    "lat": 38.266667,
    "lon": -122.433333
  },
  {
    "code": "US3TU",
    "name": "West Newton",
    "country": "US",
    "lat": 42.35,
    "lon": -71.233333
  },
  {
    "code": "US3VC",
    "name": "Outlook",
    "country": "US",
    "lat": 46.316667,
    "lon": -120.083333
  },
  {
    "code": "ES2BL",
    "name": "Lloseta",
    "country": "ES",
    "lat": 39.716667,
    "lon": 2.866667
  },
  {
    "code": "ES2TT",
    "name": "Ametlla",
    "country": "ES",
    "lat": 41.566667,
    "lon": 1.25
  },
  {
    "code": "ES2VA",
    "name": "Vallecillo",
    "country": "ES",
    "lat": 42.35,
    "lon": -5.2
  },
  {
    "code": "ES4SS",
    "name": "Santurtz",
    "country": "ES",
    "lat": 43.316667,
    "lon": -3.016667
  },
  {
    "code": "ES8TC",
    "name": "Rejected",
    "country": "ES",
    "lat": 37.466667,
    "lon": -0.816667
  },
  {
    "code": "ESAAQ",
    "name": "Santiago del Campo",
    "country": "ES",
    "lat": 39.633333,
    "lon": -6.366667
  },
  {
    "code": "ESAAW",
    "name": "Sa Canal",
    "country": "ES",
    "lat": 38.833333,
    "lon": 1.383333
  },
  {
    "code": "ESABH",
    "name": "Abanto",
    "country": "ES",
    "lat": 43.316667,
    "lon": -4.5
  },
  {
    "code": "ESACA",
    "name": "Alcanar",
    "country": "ES",
    "lat": 40.55,
    "lon": 0.483333
  },
  {
    "code": "ESACE",
    "name": "Lanzarote",
    "country": "ES",
    "lat": 28.966667,
    "lon": -13.533333
  },
  {
    "code": "ESAD6",
    "name": "Nuevo Baztán",
    "country": "ES",
    "lat": 40.366667,
    "lon": -3.25
  },
  {
    "code": "ESADR",
    "name": "Adra",
    "country": "ES",
    "lat": 36.75,
    "lon": -3.016667
  },
  {
    "code": "ESADT",
    "name": "Alcaudete de la Jaya",
    "country": "ES",
    "lat": 39.783333,
    "lon": -4.866667
  },
  {
    "code": "ESAGA",
    "name": "Agaete",
    "country": "ES",
    "lat": 28.116667,
    "lon": -15.7
  },
  {
    "code": "ESAGD",
    "name": "La Guardia",
    "country": "ES",
    "lat": 41.9,
    "lon": -8.883333
  },
  {
    "code": "INAIS",
    "name": "Amini Island",
    "country": "IN",
    "lat": 11.116667,
    "lon": 72.733333
  },
  {
    "code": "INALF",
    "name": "Alleppey",
    "country": "IN",
    "lat": 9.483333,
    "lon": 76.316667
  },
  {
    "code": "INATU",
    "name": "Attur",
    "country": "IN",
    "lat": 12.733333,
    "lon": 79.95
  },
  {
    "code": "INBDH",
    "name": "Bhadohi",
    "country": "IN",
    "lat": 25.416667,
    "lon": 82.566667
  },
  {
    "code": "INBDQ",
    "name": "Vadodara",
    "country": "IN",
    "lat": 22.3,
    "lon": 73.2
  },
  {
    "code": "INBHU",
    "name": "Bhavnagar",
    "country": "IN",
    "lat": 21.766667,
    "lon": 72.133333
  },
  {
    "code": "INBOM",
    "name": "Mumbai (ex Bombay)",
    "country": "IN",
    "lat": 18.966667,
    "lon": 72.816667
  },
  {
    "code": "INBPQ",
    "name": "Pratapganj",
    "country": "IN",
    "lat": 26.3,
    "lon": 86.966667
  },
  {
    "code": "INBPT",
    "name": "Bangarapet",
    "country": "IN",
    "lat": 12.983333,
    "lon": 78.183333
  },
  {
    "code": "INBRU",
    "name": "Bharuch",
    "country": "IN",
    "lat": 21.7,
    "lon": 72.966667
  },
  {
    "code": "INCCJ",
    "name": "Kozhikode (ex Calicut)",
    "country": "IN",
    "lat": 11.25,
    "lon": 75.766667
  },
  {
    "code": "INCCU",
    "name": "Kolkata (ex Calcutta)",
    "country": "IN",
    "lat": 22.566667,
    "lon": 88.35
  },
  {
    "code": "INCOK",
    "name": "Kochi",
    "country": "IN",
    "lat": 9.966667,
    "lon": 76.266667
  },
  {
    "code": "INDIG",
    "name": "Dighi (Pune)",
    "country": "IN",
    "lat": 18.25,
    "lon": 72.966667
  },
  {
    "code": "INDMA",
    "name": "Dhamara",
    "country": "IN",
    "lat": 20.8,
    "lon": 86.9
  },
  {
    "code": "TR9AK",
    "name": "Pasaköy",
    "country": "TR",
    "lat": 41.016667,
    "lon": 29.266667
  },
  {
    "code": "TRADY",
    "name": "Yumurtalik",
    "country": "TR",
    "lat": 36.766667,
    "lon": 35.783333
  },
  {
    "code": "TRAKB",
    "name": "Akçaabat",
    "country": "TR",
    "lat": 41.016667,
    "lon": 39.566667
  },
  {
    "code": "TRAKC",
    "name": "Akcansa",
    "country": "TR",
    "lat": 40.1,
    "lon": 26.383333
  },
  {
    "code": "TRAKD",
    "name": "Akdeniz",
    "country": "TR",
    "lat": 36.866667,
    "lon": 34.7
  },
  {
    "code": "TRAKY",
    "name": "Akçay",
    "country": "TR",
    "lat": 39.583333,
    "lon": 26.933333
  },
  {
    "code": "TRALA",
    "name": "Alanya",
    "country": "TR",
    "lat": 36.533333,
    "lon": 31.983333
  },
  {
    "code": "TRAMR",
    "name": "Ambarli",
    "country": "TR",
    "lat": 40.966667,
    "lon": 28.7
  },
  {
    "code": "TRANA",
    "name": "Anamur",
    "country": "TR",
    "lat": 36.066667,
    "lon": 32.85
  },
  {
    "code": "TRAUT",
    "name": "Yeniköy-Autoport",
    "country": "TR",
    "lat": 40.716667,
    "lon": 29.866667
  },
  {
    "code": "TRAYA",
    "name": "Ayancik",
    "country": "TR",
    "lat": 41.933333,
    "lon": 34.583333
  },
  {
    "code": "TRAYT",
    "name": "Antalya",
    "country": "TR",
    "lat": 36.833333,
    "lon": 30.6
  },
  {
    "code": "TRAYV",
    "name": "Ayvalik",
    "country": "TR",
    "lat": 39.316667,
    "lon": 26.683333
  },
  {
    "code": "TRBBI",
    "name": "Beylerbeyi",
    "country": "TR",
    "lat": 41.05,
    "lon": 29.05
  },
  {
    "code": "TRBBP",
    "name": "Baba Point",
    "country": "TR",
    "lat": 39.466667,
    "lon": 26.066667
  },
  {
    "code": "NZAKA",
    "name": "Akaroa",
    "country": "NZ",
    "lat": -43.8,
    "lon": 172.95
  },
  {
    "code": "NZAKL",
    "name": "Auckland",
    "country": "NZ",
    "lat": -36.833333,
    "lon": 174.8
  },
  {
    "code": "NZBLU",
    "name": "Bluff",
    "country": "NZ",
    "lat": -46.6,
    "lon": 168.316667
  },
  {
    "code": "NZBUW",
    "name": "Burnham Wharf",
    "country": "NZ",
    "lat": -41.3,
    "lon": 174.8
  },
  {
    "code": "NZCSA",
    "name": "Chelsea",
    "country": "NZ",
    "lat": -36.816667,
    "lon": 174.716667
  },
  {
    "code": "NZDEV",
    "name": "Devonport",
    "country": "NZ",
    "lat": -36.833333,
    "lon": 174.783333
  },
  {
    "code": "NZDPC",
    "name": "Deep Cove",
    "country": "NZ",
    "lat": -45.45,
    "lon": 167.15
  },
  {
    "code": "NZGIS",
    "name": "Gisborne",
    "country": "NZ",
    "lat": -38.666667,
    "lon": 178.033333
  },
  {
    "code": "NZGLE",
    "name": "Glenavy",
    "country": "NZ",
    "lat": -44.916667,
    "lon": 171.1
  },
  {
    "code": "NZGMN",
    "name": "Greymouth",
    "country": "NZ",
    "lat": -42.433333,
    "lon": 171.2
  },
  {
    "code": "NZHMB",
    "name": "Tamaki",
    "country": "NZ",
    "lat": -36.883333,
    "lon": 174.9
  },
  {
    "code": "NZKAU",
    "name": "Kauri Point",
    "country": "NZ",
    "lat": -36.816667,
    "lon": 174.683333
  },
  {
    "code": "NZKBZ",
    "name": "Kaikoura",
    "country": "NZ",
    "lat": -42.416667,
    "lon": 173.7
  },
  {
    "code": "NZLYT",
    "name": "Lyttelton",
    "country": "NZ",
    "lat": -43.6,
    "lon": 172.716667
  },
  {
    "code": "NZMAB",
    "name": "Matiatia Bay",
    "country": "NZ",
    "lat": -36.766667,
    "lon": 174.966667
  },
  {
    "code": "FR33G",
    "name": "Plassac",
    "country": "FR",
    "lat": 45.1,
    "lon": -0.65
  },
  {
    "code": "FR3CG",
    "name": "Bessan",
    "country": "FR",
    "lat": 43.366667,
    "lon": 3.416667
  },
  {
    "code": "FR43H",
    "name": "Olonzac",
    "country": "FR",
    "lat": 43.283333,
    "lon": 2.716667
  },
  {
    "code": "FR4MM",
    "name": "Malestroit",
    "country": "FR",
    "lat": 47.816667,
    "lon": -2.383333
  },
  {
    "code": "FR4PS",
    "name": "Plessé",
    "country": "FR",
    "lat": 47.533333,
    "lon": -1.883333
  },
  {
    "code": "FR4S4",
    "name": "Saint-André-de-la-Roche",
    "country": "FR",
    "lat": 43.733333,
    "lon": 7.283333
  },
  {
    "code": "FR4VA",
    "name": "Villesèquelande",
    "country": "FR",
    "lat": 43.233333,
    "lon": 2.233333
  },
  {
    "code": "FR5EP",
    "name": "Épervans",
    "country": "FR",
    "lat": 46.75,
    "lon": 4.9
  },
  {
    "code": "FR5TB",
    "name": "Saint-Trojan-les-Bains",
    "country": "FR",
    "lat": 45.833333,
    "lon": -1.2
  },
  {
    "code": "FR69R",
    "name": "Chasselay",
    "country": "FR",
    "lat": 45.866667,
    "lon": 4.783333
  },
  {
    "code": "FR8AY",
    "name": "Uzemain",
    "country": "FR",
    "lat": 48.083333,
    "lon": 6.35
  },
  {
    "code": "FR8GT",
    "name": "Guitalens-l'Albarède",
    "country": "FR",
    "lat": 43.65,
    "lon": 2.05
  },
  {
    "code": "FR8LV",
    "name": "Landunvez",
    "country": "FR",
    "lat": 48.533333,
    "lon": -4.733333
  },
  {
    "code": "FR9AV",
    "name": "Vadencourt",
    "country": "FR",
    "lat": 49.933333,
    "lon": 3.566667
  },
  {
    "code": "FR9DS",
    "name": "Dieue-Sur-Meuse",
    "country": "FR",
    "lat": 49.066667,
    "lon": 5.416667
  },
  {
    "code": "ARACF",
    "name": "Arrecifes",
    "country": "AR",
    "lat": -34.083333,
    "lon": -60.116667
  },
  {
    "code": "ARASO",
    "name": "Arroyo Seco",
    "country": "AR",
    "lat": -33.133333,
    "lon": -60.433333
  },
  {
    "code": "ARBHI",
    "name": "Bahía Blanca",
    "country": "AR",
    "lat": -38.716667,
    "lon": -62.283333
  },
  {
    "code": "ARBUE",
    "name": "Buenos Aires",
    "country": "AR",
    "lat": -34.583333,
    "lon": -58.666667
  },
  {
    "code": "ARBUI",
    "name": "Ingeniero Buitrago",
    "country": "AR",
    "lat": -33.35,
    "lon": -60.133333
  },
  {
    "code": "ARBVC",
    "name": "Bella Vista",
    "country": "AR",
    "lat": -28.5,
    "lon": -59.05
  },
  {
    "code": "ARCBS",
    "name": "Chimbas",
    "country": "AR",
    "lat": -31.483333,
    "lon": -68.533333
  },
  {
    "code": "ARCDL",
    "name": "Candelaria",
    "country": "AR",
    "lat": -27.45,
    "lon": -55.75
  },
  {
    "code": "ARCHO",
    "name": "Chilecito",
    "country": "AR",
    "lat": -29.166667,
    "lon": -67.5
  },
  {
    "code": "ARCLC",
    "name": "Caleta Córdoba",
    "country": "AR",
    "lat": -45.733333,
    "lon": -67.066667
  },
  {
    "code": "ARCMP",
    "name": "Campana",
    "country": "AR",
    "lat": -34.15,
    "lon": -58.95
  },
  {
    "code": "ARCOL",
    "name": "Colón",
    "country": "AR",
    "lat": -32.216667,
    "lon": -58.133333
  },
  {
    "code": "ARCOU",
    "name": "Concepción del Uruguay",
    "country": "AR",
    "lat": -32.483333,
    "lon": -58.233333
  },
  {
    "code": "ARCSA",
    "name": "Cabo San Antonio",
    "country": "AR",
    "lat": -36.033333,
    "lon": -56.566667
  },
  {
    "code": "ARDGU",
    "name": "Del Guazu",
    "country": "AR",
    "lat": -33.9,
    "lon": -58.866667
  },
  {
    "code": "KRANJ",
    "name": "Anjeong",
    "country": "KR",
    "lat": 34.95,
    "lon": 128.433333
  },
  {
    "code": "KRAWL",
    "name": "Aewol",
    "country": "KR",
    "lat": 33.45,
    "lon": 126.316667
  },
  {
    "code": "KRBIN",
    "name": "Biin",
    "country": "KR",
    "lat": 36.116667,
    "lon": 126.483333
  },
  {
    "code": "KRBJG",
    "name": "Busanjin-Gu",
    "country": "KR",
    "lat": 35.15,
    "lon": 129.05
  },
  {
    "code": "KRBNP",
    "name": "Busan New Port",
    "country": "KR",
    "lat": 35.083333,
    "lon": 128.816667
  },
  {
    "code": "KRBOR",
    "name": "Boryeong",
    "country": "KR",
    "lat": 36.316667,
    "lon": 126.5
  },
  {
    "code": "KRBUK",
    "name": "Bupyong/Incheon",
    "country": "KR",
    "lat": 37.5,
    "lon": 129.133333
  },
  {
    "code": "KRCHA",
    "name": "Jeju",
    "country": "KR",
    "lat": 33.5,
    "lon": 126.516667
  },
  {
    "code": "KRCHF",
    "name": "Jinhae",
    "country": "KR",
    "lat": 35.133333,
    "lon": 128.65
  },
  {
    "code": "KRCHG",
    "name": "Janghang/Seocheon-gun",
    "country": "KR",
    "lat": 36.0,
    "lon": 126.683333
  },
  {
    "code": "KRCJA",
    "name": "Chuja",
    "country": "KR",
    "lat": 33.95,
    "lon": 126.3
  },
  {
    "code": "KRDBL",
    "name": "Daebul/Yeongam-gun",
    "country": "KR",
    "lat": 34.75,
    "lon": 126.433333
  },
  {
    "code": "KRDCN",
    "name": "Daecheon",
    "country": "KR",
    "lat": 36.316667,
    "lon": 126.5
  },
  {
    "code": "KRDDO",
    "name": "Dokdo",
    "country": "KR",
    "lat": 37.233333,
    "lon": 131.85
  },
  {
    "code": "KRDHS",
    "name": "Daeheuksando",
    "country": "KR",
    "lat": 34.683333,
    "lon": 125.433333
  },
  {
    "code": "GB7TR",
    "name": "Norton",
    "country": "GB",
    "lat": 52.15,
    "lon": -2.183333
  },
  {
    "code": "GBABA",
    "name": "Aberaeron",
    "country": "GB",
    "lat": 52.25,
    "lon": -4.25
  },
  {
    "code": "GBABD",
    "name": "Aberdeen",
    "country": "GB",
    "lat": 57.133333,
    "lon": -2.1
  },
  {
    "code": "GBABF",
    "name": "Aberdyfi (Aberdovey)",
    "country": "GB",
    "lat": 52.55,
    "lon": -4.033333
  },
  {
    "code": "GBABJ",
    "name": "Saint Abbs",
    "country": "GB",
    "lat": 55.9,
    "lon": -2.133333
  },
  {
    "code": "GBABS",
    "name": "Aber Sôch (Abersoch)",
    "country": "GB",
    "lat": 52.816667,
    "lon": -4.5
  },
  {
    "code": "GBABV",
    "name": "Aberdovey",
    "country": "GB",
    "lat": 52.533333,
    "lon": -4.05
  },
  {
    "code": "GBABW",
    "name": "Barmouth (Abermaw)",
    "country": "GB",
    "lat": 52.716667,
    "lon": -4.05
  },
  {
    "code": "GBACA",
    "name": "Acharacle",
    "country": "GB",
    "lat": 54.733333,
    "lon": -5.783333
  },
  {
    "code": "GBACB",
    "name": "Back",
    "country": "GB",
    "lat": 58.266667,
    "lon": -6.316667
  },
  {
    "code": "GBACE",
    "name": "Achiltibuie",
    "country": "GB",
    "lat": 58.033333,
    "lon": -5.366667
  },
  {
    "code": "GBACV",
    "name": "Cove (Aberdeen)",
    "country": "GB",
    "lat": 57.1,
    "lon": -2.066667
  },
  {
    "code": "GBADF",
    "name": "Ardfern",
    "country": "GB",
    "lat": 56.183333,
    "lon": -5.533333
  },
  {
    "code": "GBADK",
    "name": "Ardkeen",
    "country": "GB",
    "lat": 54.416667,
    "lon": -5.516667
  },
  {
    "code": "GBADM",
    "name": "Aird Mhor (Ardmhor)",
    "country": "GB",
    "lat": 57.016667,
    "lon": -7.416667
  },
  {
    "code": "JPAFG",
    "name": "Akitafunagawa",
    "country": "JP",
    "lat": 39.883333,
    "lon": 139.95
  },
  {
    "code": "JPAIG",
    "name": "Aki-gun/Hiroshima",
    "country": "JP",
    "lat": 34.333333,
    "lon": 132.533333
  },
  {
    "code": "JPAIO",
    "name": "Aioi",
    "country": "JP",
    "lat": 34.783333,
    "lon": 134.466667
  },
  {
    "code": "JPAMX",
    "name": "AmagasakiNishinomiyaAshiya",
    "country": "JP",
    "lat": 34.716667,
    "lon": 135.416667
  },
  {
    "code": "JPAOM",
    "name": "Omi",
    "country": "JP",
    "lat": 37.016667,
    "lon": 137.8
  },
  {
    "code": "JPAPP",
    "name": "Koshi",
    "country": "JP",
    "lat": 32.883333,
    "lon": 130.783333
  },
  {
    "code": "JPARI",
    "name": "Ariake, Tokyo",
    "country": "JP",
    "lat": 35.633333,
    "lon": 139.783333
  },
  {
    "code": "JPASI",
    "name": "Asahimachi",
    "country": "JP",
    "lat": 35.533333,
    "lon": 139.7
  },
  {
    "code": "JPASU",
    "name": "Kasuya",
    "country": "JP",
    "lat": 33.616667,
    "lon": 130.483333
  },
  {
    "code": "JPATA",
    "name": "Ataka",
    "country": "JP",
    "lat": 36.416667,
    "lon": 136.416667
  },
  {
    "code": "JPAUI",
    "name": "Asakuchi",
    "country": "JP",
    "lat": 34.516667,
    "lon": 133.583333
  },
  {
    "code": "JPAXZ",
    "name": "Zushi",
    "country": "JP",
    "lat": 35.283333,
    "lon": 139.583333
  },
  {
    "code": "JPBIZ",
    "name": "Bizen",
    "country": "JP",
    "lat": 34.733333,
    "lon": 134.183333
  },
  {
    "code": "JPBKW",
    "name": "Shibukawa",
    "country": "JP",
    "lat": 36.483333,
    "lon": 139.0
  },
  {
    "code": "JPCHG",
    "name": "Chigasaki",
    "country": "JP",
    "lat": 35.316667,
    "lon": 139.4
  },
  {
    "code": "AU5CI",
    "name": "Selby",
    "country": "AU",
    "lat": -37.916667,
    "lon": 145.383333
  },
  {
    "code": "AUABP",
    "name": "Abbot Point",
    "country": "AU",
    "lat": -19.9,
    "lon": 148.083333
  },
  {
    "code": "AUADL",
    "name": "Adelaide",
    "country": "AU",
    "lat": -34.916667,
    "lon": 138.583333
  },
  {
    "code": "AUAGS",
    "name": "Augusta",
    "country": "AU",
    "lat": -34.316667,
    "lon": 115.166667
  },
  {
    "code": "AUALD",
    "name": "Aldgate",
    "country": "AU",
    "lat": -35.016667,
    "lon": 138.733333
  },
  {
    "code": "AUALI",
    "name": "Australind",
    "country": "AU",
    "lat": -33.283333,
    "lon": 115.716667
  },
  {
    "code": "AUALP",
    "name": "Abell Point",
    "country": "AU",
    "lat": -20.266667,
    "lon": 148.716667
  },
  {
    "code": "AUAMR",
    "name": "Amrun",
    "country": "AU",
    "lat": -12.916667,
    "lon": 141.616667
  },
  {
    "code": "AUANN",
    "name": "Annandale",
    "country": "AU",
    "lat": -33.883333,
    "lon": 151.166667
  },
  {
    "code": "AUAPP",
    "name": "Applecross",
    "country": "AU",
    "lat": -32.016667,
    "lon": 115.833333
  },
  {
    "code": "AUASB",
    "name": "Ashburton",
    "country": "AU",
    "lat": -21.683333,
    "lon": 115.0
  },
  {
    "code": "AUASH",
    "name": "Ashton",
    "country": "AU",
    "lat": -34.933333,
    "lon": 138.733333
  },
  {
    "code": "AUATT",
    "name": "Attadale",
    "country": "AU",
    "lat": -32.016667,
    "lon": 115.783333
  },
  {
    "code": "AUBAA",
    "name": "Balhannah",
    "country": "AU",
    "lat": -34.983333,
    "lon": 138.833333
  },
  {
    "code": "AUBAE",
    "name": "Baerami",
    "country": "AU",
    "lat": -32.4,
    "lon": 150.483333
  },
  {
    "code": "COACM",
    "name": "Arica",
    "country": "CO",
    "lat": -2.116667,
    "lon": -71.733333
  },
  {
    "code": "COBAL",
    "name": "Balboa",
    "country": "CO",
    "lat": 2.033333,
    "lon": -77.216667
  },
  {
    "code": "COCNR",
    "name": "Contecar",
    "country": "CO",
    "lat": 10.383333,
    "lon": -75.516667
  },
  {
    "code": "COCOV",
    "name": "Covenas Offshore Terminal",
    "country": "CO",
    "lat": 9.5,
    "lon": -75.733333
  },
  {
    "code": "COLET",
    "name": "Leticia",
    "country": "CO",
    "lat": -4.216667,
    "lon": -69.933333
  },
  {
    "code": "COMAM",
    "name": "Mamonal",
    "country": "CO",
    "lat": 10.316667,
    "lon": -75.5
  },
  {
    "code": "COMAU",
    "name": "Manaure",
    "country": "CO",
    "lat": 11.766667,
    "lon": -72.433333
  },
  {
    "code": "COMIN",
    "name": "Mingueo",
    "country": "CO",
    "lat": 11.2,
    "lon": -73.4
  },
  {
    "code": "COPBO",
    "name": "Puerto Bolívar",
    "country": "CO",
    "lat": 10.683333,
    "lon": -74.733333
  },
  {
    "code": "COPCR",
    "name": "Puerto Carreño",
    "country": "CO",
    "lat": 6.183333,
    "lon": -67.483333
  },
  {
    "code": "COPNM",
    "name": "Puerto Limón",
    "country": "CO",
    "lat": 1.05,
    "lon": -76.5
  },
  {
    "code": "COPSB",
    "name": "Simon Bolivar",
    "country": "CO",
    "lat": -4.133333,
    "lon": -69.966667
  },
  {
    "code": "COPUC",
    "name": "Puerto Colombia",
    "country": "CO",
    "lat": 11.0,
    "lon": -74.95
  },
  {
    "code": "COPUL",
    "name": "Puerto Limón",
    "country": "CO",
    "lat": 9.383333,
    "lon": -76.183333
  },
  {
    "code": "COPUU",
    "name": "Puerto Asís",
    "country": "CO",
    "lat": 0.516667,
    "lon": -76.5
  },
  {
    "code": "DE23A",
    "name": "Leinatal",
    "country": "DE",
    "lat": 50.9,
    "lon": 10.633333
  },
  {
    "code": "DE2RO",
    "name": "Rödersheim",
    "country": "DE",
    "lat": 49.433333,
    "lon": 8.25
  },
  {
    "code": "DE3L4",
    "name": "Hoppegarten",
    "country": "DE",
    "lat": 52.516667,
    "lon": 13.666667
  },
  {
    "code": "DE64Z",
    "name": "Niendorf Ostsee",
    "country": "DE",
    "lat": 54.0,
    "lon": 10.816667
  },
  {
    "code": "DE69S",
    "name": "Wittdün",
    "country": "DE",
    "lat": 54.633333,
    "lon": 8.4
  },
  {
    "code": "DE6NK",
    "name": "Langsur",
    "country": "DE",
    "lat": 49.716667,
    "lon": 6.5
  },
  {
    "code": "DE73A",
    "name": "Langballig",
    "country": "DE",
    "lat": 54.8,
    "lon": 9.633333
  },
  {
    "code": "DEAAD",
    "name": "Landkreis Ammerland",
    "country": "DE",
    "lat": 53.216667,
    "lon": 8.016667
  },
  {
    "code": "DEAAH",
    "name": "Aachen",
    "country": "DE",
    "lat": 50.766667,
    "lon": 6.083333
  },
  {
    "code": "DEABF",
    "name": "Abbenfleth",
    "country": "DE",
    "lat": 53.666667,
    "lon": 9.483333
  },
  {
    "code": "DEABH",
    "name": "Abbehausen",
    "country": "DE",
    "lat": 53.483333,
    "lon": 8.433333
  },
  {
    "code": "DEABL",
    "name": "Abbesbüttel",
    "country": "DE",
    "lat": 52.35,
    "lon": 10.566667
  },
  {
    "code": "DEABO",
    "name": "Alt Bork",
    "country": "DE",
    "lat": 52.183333,
    "lon": 12.866667
  },
  {
    "code": "DEADT",
    "name": "Weinstadt",
    "country": "DE",
    "lat": 48.816667,
    "lon": 9.366667
  },
  {
    "code": "DEAEB",
    "name": "Babelsberg",
    "country": "DE",
    "lat": 52.383333,
    "lon": 13.116667
  },
  {
    "code": "SGAYC",
    "name": "Pulau Ayer Chawan",
    "country": "SG",
    "lat": 1.266667,
    "lon": 103.7
  },
  {
    "code": "SGCHG",
    "name": "Changi",
    "country": "SG",
    "lat": 1.35,
    "lon": 103.983333
  },
  {
    "code": "SGJUR",
    "name": "Jurong",
    "country": "SG",
    "lat": 1.333333,
    "lon": 103.7
  },
  {
    "code": "SGKEP",
    "name": "Keppel",
    "country": "SG",
    "lat": 1.266667,
    "lon": 103.833333
  },
  {
    "code": "SGPAP",
    "name": "Pasir Panjang",
    "country": "SG",
    "lat": 1.266667,
    "lon": 103.783333
  },
  {
    "code": "SGPPT",
    "name": "PASIR PANJANG Terminal",
    "country": "SG",
    "lat": 1.283333,
    "lon": 103.766667
  },
  {
    "code": "SGPUB",
    "name": "Pulau Bukom",
    "country": "SG",
    "lat": 1.233333,
    "lon": 103.766667
  },
  {
    "code": "SGSEB",
    "name": "Pulau Sebarok",
    "country": "SG",
    "lat": 1.2,
    "lon": 103.8
  },
  {
    "code": "SGSEM",
    "name": "Sembawang",
    "country": "SG",
    "lat": 1.45,
    "lon": 103.816667
  },
  {
    "code": "SGSIN",
    "name": "Singapore",
    "country": "SG",
    "lat": 1.283333,
    "lon": 103.85
  },
  {
    "code": "SGSLT",
    "name": "Seletar",
    "country": "SG",
    "lat": 1.4,
    "lon": 103.866667
  },
  {
    "code": "SGTPG",
    "name": "Tanjong Pagar",
    "country": "SG",
    "lat": 1.266667,
    "lon": 103.85
  },
  {
    "code": "SGTPN",
    "name": "Tanjong Penjuru",
    "country": "SG",
    "lat": 1.316667,
    "lon": 103.733333
  },
  {
    "code": "SGTUA",
    "name": "Tuas",
    "country": "SG",
    "lat": 1.316667,
    "lon": 103.65
  },
  {
    "code": "ITAAS",
    "name": "Marina di Davoli",
    "country": "IT",
    "lat": 38.666667,
    "lon": 16.55
  },
  {
    "code": "ITACL",
    "name": "Aci Castello",
    "country": "IT",
    "lat": 37.55,
    "lon": 15.133333
  },
  {
    "code": "ITACT",
    "name": "Aci Trezza",
    "country": "IT",
    "lat": 37.566667,
    "lon": 15.166667
  },
  {
    "code": "ITADA",
    "name": "Andora",
    "country": "IT",
    "lat": 43.95,
    "lon": 8.15
  },
  {
    "code": "ITAEL",
    "name": "Castel Volturno",
    "country": "IT",
    "lat": 41.333333,
    "lon": 13.933333
  },
  {
    "code": "ITAGP",
    "name": "Agropoli",
    "country": "IT",
    "lat": 40.35,
    "lon": 14.983333
  },
  {
    "code": "ITAHO",
    "name": "Alghero",
    "country": "IT",
    "lat": 40.55,
    "lon": 8.316667
  },
  {
    "code": "ITALS",
    "name": "Alassio",
    "country": "IT",
    "lat": 44.0,
    "lon": 8.166667
  },
  {
    "code": "ITAMA",
    "name": "Amalfi",
    "country": "IT",
    "lat": 40.633333,
    "lon": 14.6
  },
  {
    "code": "ITAMN",
    "name": "Santa Maria Navarrese",
    "country": "IT",
    "lat": 39.983333,
    "lon": 9.683333
  },
  {
    "code": "ITAMT",
    "name": "Amantea",
    "country": "IT",
    "lat": 39.133333,
    "lon": 16.066667
  },
  {
    "code": "ITANZ",
    "name": "Anzio",
    "country": "IT",
    "lat": 41.45,
    "lon": 12.616667
  },
  {
    "code": "ITAOA",
    "name": "Paola",
    "country": "IT",
    "lat": 39.35,
    "lon": 16.033333
  },
  {
    "code": "ITAOI",
    "name": "Ancona",
    "country": "IT",
    "lat": 43.633333,
    "lon": 13.5
  },
  {
    "code": "ITAOL",
    "name": "Acciaroli",
    "country": "IT",
    "lat": 40.183333,
    "lon": 15.016667
  },
  {
    "code": "CLACH",
    "name": "Achao",
    "country": "CL",
    "lat": -42.45,
    "lon": -73.516667
  },
  {
    "code": "CLANF",
    "name": "Antofagasta",
    "country": "CL",
    "lat": -23.633333,
    "lon": -70.383333
  },
  {
    "code": "CLARA",
    "name": "Arauco",
    "country": "CL",
    "lat": -37.25,
    "lon": -73.316667
  },
  {
    "code": "CLARI",
    "name": "Arica",
    "country": "CL",
    "lat": -18.483333,
    "lon": -70.316667
  },
  {
    "code": "CLAYA",
    "name": "Ayacara",
    "country": "CL",
    "lat": -42.3,
    "lon": -72.783333
  },
  {
    "code": "CLBAG",
    "name": "Bahía San Gregorio",
    "country": "CL",
    "lat": -52.616667,
    "lon": -70.133333
  },
  {
    "code": "CLBAR",
    "name": "Barquito",
    "country": "CL",
    "lat": -26.35,
    "lon": -70.633333
  },
  {
    "code": "CLBLR",
    "name": "Bahia Laredo",
    "country": "CL",
    "lat": -52.966667,
    "lon": -70.8
  },
  {
    "code": "CLCAA",
    "name": "Calderilla",
    "country": "CL",
    "lat": -27.083333,
    "lon": -70.85
  },
  {
    "code": "CLCAL",
    "name": "Caleta Patillos",
    "country": "CL",
    "lat": -20.75,
    "lon": -70.2
  },
  {
    "code": "CLCBC",
    "name": "Calbuco",
    "country": "CL",
    "lat": -41.75,
    "lon": -73.133333
  },
  {
    "code": "CLCCA",
    "name": "Chacao",
    "country": "CL",
    "lat": -41.833333,
    "lon": -73.533333
  },
  {
    "code": "CLCCP",
    "name": "Concepción",
    "country": "CL",
    "lat": -36.816667,
    "lon": -73.05
  },
  {
    "code": "CLCDV",
    "name": "Curaco de Vélez",
    "country": "CL",
    "lat": -42.433333,
    "lon": -73.566667
  },
  {
    "code": "CLCGR",
    "name": "Cruz Grande",
    "country": "CL",
    "lat": -29.45,
    "lon": -71.3
  },
  {
    "code": "MX4TE",
    "name": "Tepetlixpac",
    "country": "MX",
    "lat": 19.033333,
    "lon": -98.816667
  },
  {
    "code": "MX9AS",
    "name": "Xochimancas",
    "country": "MX",
    "lat": 18.783333,
    "lon": -99.1
  },
  {
    "code": "MXAAO",
    "name": "Camargo",
    "country": "MX",
    "lat": 28.1,
    "lon": -105.266667
  },
  {
    "code": "MXACA",
    "name": "Acapulco",
    "country": "MX",
    "lat": 16.85,
    "lon": -99.866667
  },
  {
    "code": "MXACM",
    "name": "Acolman",
    "country": "MX",
    "lat": 19.616667,
    "lon": -98.916667
  },
  {
    "code": "MXAPR",
    "name": "Agua Prieta",
    "country": "MX",
    "lat": 31.3,
    "lon": -109.566667
  },
  {
    "code": "MXARZ",
    "name": "Arizpe",
    "country": "MX",
    "lat": 30.333333,
    "lon": -110.166667
  },
  {
    "code": "MXATM",
    "name": "Altamira",
    "country": "MX",
    "lat": 22.4,
    "lon": -97.916667
  },
  {
    "code": "MXATN",
    "name": "Amatitán",
    "country": "MX",
    "lat": 20.833333,
    "lon": -103.716667
  },
  {
    "code": "MXBDR",
    "name": "Boca del Río",
    "country": "MX",
    "lat": 19.116667,
    "lon": -96.116667
  },
  {
    "code": "MXCAT",
    "name": "Cayo Arcas Terminal",
    "country": "MX",
    "lat": 19.683333,
    "lon": -92.083333
  },
  {
    "code": "MXCDD",
    "name": "Ciudad Madero",
    "country": "MX",
    "lat": 22.266667,
    "lon": -97.833333
  },
  {
    "code": "MXCED",
    "name": "Cedros",
    "country": "MX",
    "lat": 28.116667,
    "lon": -115.166667
  },
  {
    "code": "MXCME",
    "name": "Ciudad del Carmen",
    "country": "MX",
    "lat": 18.633333,
    "lon": -91.833333
  },
  {
    "code": "MXCOA",
    "name": "Coatzacoalcos",
    "country": "MX",
    "lat": 18.133333,
    "lon": -94.4
  },
  {
    "code": "CNAIN",
    "name": "Huaiyin",
    "country": "CN",
    "lat": 33.633333,
    "lon": 119.016667
  },
  {
    "code": "CNAJG",
    "name": "Aojiang Pt",
    "country": "CN",
    "lat": 27.583333,
    "lon": 120.45
  },
  {
    "code": "CNANG",
    "name": "Huangxian",
    "country": "CN",
    "lat": 29.55,
    "lon": 121.566667
  },
  {
    "code": "CNANQ",
    "name": "Anqiu",
    "country": "CN",
    "lat": 36.416667,
    "lon": 119.183333
  },
  {
    "code": "CNANT",
    "name": "Anting",
    "country": "CN",
    "lat": 31.3,
    "lon": 121.15
  },
  {
    "code": "CNAPP",
    "name": "Anpu",
    "country": "CN",
    "lat": 21.383333,
    "lon": 109.833333
  },
  {
    "code": "CNAQG",
    "name": "Anqing",
    "country": "CN",
    "lat": 30.516667,
    "lon": 117.033333
  },
  {
    "code": "CNASW",
    "name": "Aoshanwei",
    "country": "CN",
    "lat": 36.35,
    "lon": 120.666667
  },
  {
    "code": "CNBCG",
    "name": "Baiceng",
    "country": "CN",
    "lat": 25.433333,
    "lon": 105.8
  },
  {
    "code": "CNBCO",
    "name": "Bacao",
    "country": "CN",
    "lat": 25.466667,
    "lon": 105.783333
  },
  {
    "code": "CNBDG",
    "name": "Badong",
    "country": "CN",
    "lat": 31.033333,
    "lon": 110.383333
  },
  {
    "code": "CNBEI",
    "name": "Beilun",
    "country": "CN",
    "lat": 29.933333,
    "lon": 121.883333
  },
  {
    "code": "CNBHX",
    "name": "Binhai",
    "country": "CN",
    "lat": 33.716667,
    "lon": 119.616667
  },
  {
    "code": "CNBIH",
    "name": "Beihai Pt",
    "country": "CN",
    "lat": 21.466667,
    "lon": 109.116667
  },
  {
    "code": "CNBIJ",
    "name": "Beijiao",
    "country": "CN",
    "lat": 22.916667,
    "lon": 113.2
  },
  {
    "code": "THBAI",
    "name": "Bangpoomai",
    "country": "TH",
    "lat": 13.533333,
    "lon": 100.666667
  },
  {
    "code": "THBEN",
    "name": "Benchamas",
    "country": "TH",
    "lat": 10.516667,
    "lon": 101.316667
  },
  {
    "code": "THBKK",
    "name": "Bangkok",
    "country": "TH",
    "lat": 13.75,
    "lon": 100.516667
  },
  {
    "code": "THBMT",
    "name": "Bangkok Modern Terminals/Bangkok",
    "country": "TH",
    "lat": 13.6,
    "lon": 100.583333
  },
  {
    "code": "THBND",
    "name": "Ban Don",
    "country": "TH",
    "lat": 9.183333,
    "lon": 99.366667
  },
  {
    "code": "THBNG",
    "name": "Bangnara",
    "country": "TH",
    "lat": 6.433333,
    "lon": 101.833333
  },
  {
    "code": "THBNK",
    "name": "Ban Kantang",
    "country": "TH",
    "lat": 7.416667,
    "lon": 99.5
  },
  {
    "code": "THBNL",
    "name": "Ban Laem",
    "country": "TH",
    "lat": 13.116667,
    "lon": 100.116667
  },
  {
    "code": "THBPG",
    "name": "Ban Pong",
    "country": "TH",
    "lat": 13.8,
    "lon": 99.866667
  },
  {
    "code": "THBPK",
    "name": "Ban Prakop Customs House",
    "country": "TH",
    "lat": 6.466667,
    "lon": 100.716667
  },
  {
    "code": "THBSP",
    "name": "Bang Saphan",
    "country": "TH",
    "lat": 11.2,
    "lon": 99.516667
  },
  {
    "code": "THBTC",
    "name": "Bangpakong Terminal",
    "country": "TH",
    "lat": 13.466667,
    "lon": 100.983333
  },
  {
    "code": "THBTP",
    "name": "Ban Talat Takua Pa",
    "country": "TH",
    "lat": 8.833333,
    "lon": 98.366667
  },
  {
    "code": "THCHA",
    "name": "Chanthaburi",
    "country": "TH",
    "lat": 12.3,
    "lon": 102.233333
  },
  {
    "code": "THCHS",
    "name": "Chiang Saen Customs House",
    "country": "TH",
    "lat": 20.316667,
    "lon": 100.066667
  },
  {
    "code": "PEANC",
    "name": "Ancón",
    "country": "PE",
    "lat": -11.766667,
    "lon": -77.166667
  },
  {
    "code": "PEBAR",
    "name": "San Bartolo",
    "country": "PE",
    "lat": -12.383333,
    "lon": -76.783333
  },
  {
    "code": "PECHY",
    "name": "Chancay",
    "country": "PE",
    "lat": -11.566667,
    "lon": -77.266667
  },
  {
    "code": "PECLL",
    "name": "Callao",
    "country": "PE",
    "lat": -12.05,
    "lon": -77.133333
  },
  {
    "code": "PECON",
    "name": "Conchán",
    "country": "PE",
    "lat": -6.416667,
    "lon": -78.666667
  },
  {
    "code": "PEILQ",
    "name": "Ilo",
    "country": "PE",
    "lat": -17.65,
    "lon": -71.333333
  },
  {
    "code": "PELAG",
    "name": "Lagunas",
    "country": "PE",
    "lat": -5.216667,
    "lon": -75.666667
  },
  {
    "code": "PELIM",
    "name": "Lima",
    "country": "PE",
    "lat": -12.05,
    "lon": -77.05
  },
  {
    "code": "PELOO",
    "name": "Los Organos",
    "country": "PE",
    "lat": -4.183333,
    "lon": -81.116667
  },
  {
    "code": "PEPEM",
    "name": "Puerto Maldonado",
    "country": "PE",
    "lat": -12.583333,
    "lon": -69.2
  },
  {
    "code": "PEPLO",
    "name": "Punta Lobitos",
    "country": "PE",
    "lat": -10.083333,
    "lon": -78.183333
  },
  {
    "code": "PEPMC",
    "name": "Pampa Melchorita",
    "country": "PE",
    "lat": -13.3,
    "lon": -77.783333
  },
  {
    "code": "PEPUB",
    "name": "Bayovar",
    "country": "PE",
    "lat": -5.85,
    "lon": -81.066667
  },
  {
    "code": "PESJA",
    "name": "San Juan",
    "country": "PE",
    "lat": -15.366667,
    "lon": -75.166667
  },
  {
    "code": "PESNX",
    "name": "San Nicolas",
    "country": "PE",
    "lat": -15.266667,
    "lon": -75.233333
  }
]